,NOMBRE,DIRECCION,BARRIO,COCINA,SITUACION,TERRAZA,SUPERFICIE_OCUPADA,RATING,NUM_OPINIONES,PRECIO,LONGITUD,LATITUD
0,128 Rambla Restaurant- Hotel Rivoli,"C. RAMBLA, 128",el Barri Gòtic,MEDITERRANEO,None,No,None,0.0,0,17,2.17117,41.38431
1,18 d'octubre,"C. JULIAN ROMEA, 18",Sant Gervasi - Galvany,ESPAÑOL,None,No,None,8.1,1161,26,2.15349,41.39759
2,1902 Cafè Modernista,"C. SANT ANTONI MARIA CLARET, 167",el Guinardó,CATALAN,Abierto,No,None,0.0,0,35,2.17575,41.41241
3,216 Grammi Barcelona Vila Olimpica,"C. JOAN MIRO, 24",la Vila Olímpica del Poblenou,ITALIANO,Abierto,Si,5.7,9.2,412,15,2.19454,41.39085
4,2Y Restaurante Macrobiótico y Vegano,"PTGE. BATLLO, 4",l'Antiga Esquerra de l'Eixample,VEGETARIANO,None,No,None,9.6,425,11,2.15138,41.38836
5,3 - Hotel Granados 83,"C. ENRIC GRANADOS, 83",l'Antiga Esquerra de l'Eixample,MEDITERRANEO,None,Si,13.5,0.0,0,15,2.15684,41.39188
6,3 Atelier Gastrobar Eddie Arola,"C. CORSEGA, 231",l'Antiga Esquerra de l'Eixample,AUTOR,None,Si,2.85,0.0,0,17,2.15322,41.39207
7,3 Focs,"C. VALENCIA, 207",l'Antiga Esquerra de l'Eixample,MEDITERRANEO,Abierto,Si,7.22,8.9,1078,21,2.15987,41.39026
8,3Sentits,"C. ARIZALA, 53",la Maternitat i Sant Ramon,MEDITERRANEO,Abierto,Si,6.75,6.4,143,20,2.12383,41.37806
9,50&5 by Eboca Restaurant,"C. MUNTANER, 505",Sant Gervasi - la Bonanova,MEDITERRANEO,Abierto,Si,5.7,0.0,0,15,2.13724,41.40324
10,65 Degrees Barcelona,"C. DAVANT DEL PORTAL NOU, 3","Sant Pere, Santa Caterina i la Ribera",FUSION,Abierto,Si,9.0,9.1,62,20,2.18063,41.38981
11,7 Portes,"PG. ISABEL II, 14","Sant Pere, Santa Caterina i la Ribera",CATALAN,Abierto,Si,21.25,8.8,4025,50,2.18338,41.38218
12,9 Reinas - Barcelona,"C. VALENCIA, 267",la Dreta de l'Eixample,ARGENTINO,Abierto,No,None,9.4,1964,44,2.1649,41.39405
13,9 Reinas - Gourmet,"C. GANDUXER, 28",Sant Gervasi - Galvany,ARGENTINO,Abierto,Si,2.4,9.5,425,27,2.13849,41.39363
14,9NINE,"C. VALENCIA, 334",la Dreta de l'Eixample,MEDITERRANEO,Abierto,No,None,0.0,0,25,2.16843,41.39642
15,A Casa da Fonte,"C. SUGRANYES, 17",Sants - Badal,MEDITERRANEO,None,No,None,0.0,0,18,2.12792,41.37478
16,A Cañota,"C. INDUSTRIA, 314",el Camp de l'Arpa del Clot,GALLEGO,Abierto,Si,27.0,0.0,0,76,2.18202,41.41531
17,A Gaudir,"C. ARAGO, 111",la Nova Esquerra de l'Eixample,CATALAN,None,Si,8.1,8.4,351,30,2.1521,41.3827
18,A Mi Manera Restaurant,"C. PARLAMENT, 15",Sant Antoni,MEDITERRANEO,Abierto,Si,4.5,9.8,4,20,2.1617,41.37595
19,A Pluma - Gran de Gràcia,"C. GRAN DE GRACIA, 7",la Vila de Gràcia,MEDITERRANEO,Abierto,Si,18.0,9.6,47,25,2.15727,41.39785
20,A Pluma - Rec Comtal,"C. REC COMTAL, 7","Sant Pere, Santa Caterina i la Ribera",MEDITERRANEO,Abierto,Si,1.2,0.0,0,25,2.17963,41.38948
21,A Pluma - Santaló,"C. SANTALO, 39",Sant Gervasi - Galvany,MEDITERRANEO,Abierto,Si,4.8,0.0,0,25,2.14534,41.39592
22,A Toda Leña,"C. CONSELL DE CENT, 487",el Fort Pienc,ARGENTINO,Abierto,Si,2.25,0.0,0,20,2.17708,41.39979
23,A33 Pizzeria,"C. MANSO, 22",Sant Antoni,Sin información,Cerrado,Si,3.45,8.8,68,20,2.16018,41.37622
24,ABaC by Jordi Cruz,"AV. TIBIDABO, 1",Sant Gervasi - la Bonanova,MEDITERRANEO,Cerrado,No,None,0.0,0,135,2.13661,41.41058
25,AKELARRE,"C. DEU I MATA, 104",les Corts,Sin información,None,Si,9.0,8.2,3,12,2.1374,41.38926
26,Abanik Bar,"C. CALABRIA, 209",la Nova Esquerra de l'Eixample,MEDITERRANEO,Cerrado,Si,8.55,9.5,305,15,2.14751,41.38522
27,Abirradero,"C. VILA I VILA, 77",el Poble Sec,MEDITERRANEO,None,Si,40.5,8.9,443,20,2.16858,41.3742
28,Abrassame,"G.V.. CORTS CATALANES, 373",la Nova Esquerra de l'Eixample,MEDITERRANEO,Abierto,Si,42.75,0.0,0,30,2.14997,41.37603
29,Accés,"C. ARIBAU, 55",l'Antiga Esquerra de l'Eixample,MEDITERRANEO,None,No,None,9.7,873,40,2.15913,41.38844
30,Aché pa ti,"C. CASTILLEJOS, 208",la Sagrada Família,CUBANO,None,Si,3.45,0.0,0,14,2.18196,41.40385
31,Adil tandoori restaurante,"C. EST, 9",el Raval,INDIO,None,Si,9.0,9.1,37,15,2.17342,41.37751
32,Agust,"C. PARLAMENT, 54",Sant Antoni,ESPAÑOL,None,Si,2.25,8.7,2155,45,2.16391,41.37734
33,Agut,"C. GIGNAS, 16",el Barri Gòtic,CATALAN,Cerrado,No,None,9.2,720,11,2.17993,41.38096
34,Ají,"C. MARINA, 19",la Barceloneta,JAPONES,Cerrado,Si,32.0,9.4,1118,35,2.19657,41.38711
35,Akashi Gallery,"C. ROSSELLO, 197",l'Antiga Esquerra de l'Eixample,JAPONES,None,Si,2.25,9.1,302,25,2.15577,41.39225
36,Al Bistró Gastronomico,"C. ANTONI DE CAPMANY, 72",Sants,MEDITERRANEO,Abierto,Si,11.25,7.0,37,20,2.13485,41.37436
37,Al Jaima Els Encants,"C. BOLIVIA, 1",el Parc i la Llacuna del Poblenou,MARROQUI,Abierto,Si,9.0,0.0,0,8,2.18818,41.40097
38,Al Jaima de Abou Khalil,"C. VALENCIA, 218",l'Antiga Esquerra de l'Eixample,LIBANES,Abierto,Si,7.22,9.6,279,20,2.15931,41.38956
39,Al Passatore-Pla de Palau,"PLA. PALAU, 8","Sant Pere, Santa Caterina i la Ribera",Sin información,None,No,None,0.0,0,18,2.1829,41.38335
40,Al Punt,"C. GIRONA, 51",la Dreta de l'Eixample,MEDITERRANEO,Abierto,No,None,0.0,0,17,2.17256,41.39363
41,Al Sultán,"C. TORRENT DE OLLA, 143",la Vila de Gràcia,MARROQUI,None,No,None,0.0,0,20,2.15551,41.40363
42,Alba Granados,"C. ENRIC GRANADOS, 34",l'Antiga Esquerra de l'Eixample,MEDITERRANEO,Abierto,Si,11.25,9.3,115,40,2.15901,41.39051
43,Alegra,"MOLL ESPANYA, 5",el Barri Gòtic,MEDITERRANEO,Abierto,No,None,0.0,0,35,2.18239,41.37545
44,All you eat is love,"C. MARINA, 52",la Vila Olímpica del Poblenou,VEGETARIANO,None,Si,9.0,9.3,66,18,2.19145,41.39167
45,Almalibre Açaí Bar,"C. GIRONA, 118",la Dreta de l'Eixample,VEGETARIANO,None,Si,3.45,0.0,0,15,2.16829,41.39709
46,Alsur Café,"C. CARDERS, 17","Sant Pere, Santa Caterina i la Ribera",INTERNACIONAL,Cerrado,Si,18.0,8.7,229,20,2.18007,41.38643
47,Alta Galicia,"RBLA. POBLENOU, 93",el Poblenou,MARISQUERIA,Abierto,Si,18.0,0.0,0,24,2.19911,41.40256
48,Alto Bueno,"C. MUNTANER, 109",l'Antiga Esquerra de l'Eixample,MEDITERRANEO,Abierto,Si,8.1,0.0,0,20,2.15573,41.38926
49,Amaloca,"C. VIRTUT, 11",la Vila de Gràcia,FUSION,Cerrado,No,None,0.0,0,20,2.15623,41.40233
50,Amassame,"C. SANT MEDIR, 8",Sants,INSIDER,Abierto,Si,4.5,0.0,0,15,2.13275,41.37506
51,Amaya,"C. RAMBLA, 20",el Barri Gòtic,VASCO,None,No,None,9.6,237,35,2.17623,41.37806
52,Amsterdam Burgers&Beers,"C. ARAGO, 305",la Dreta de l'Eixample,AMERICANO,Abierto,Si,2.25,9.1,4,12,2.1681,41.39481
53,Andino,"C. CORSEGA, 589",la Sagrada Família,PERUANO,Abierto,Si,4.5,0.0,0,20,2.17384,41.40759
54,Anita Flow,"C. CONSELL DE CENT, 413",la Dreta de l'Eixample,INTERNACIONAL,Abierto,Si,15.3,9.3,849,15,2.17166,41.39572
55,Annapurna Barcelona,"C. PARIS, 161",l'Antiga Esquerra de l'Eixample,ASIATICO,Cerrado,Si,4.37,0.0,0,16,2.15107,41.39214
56,Antic Villarroel,"C. VILLARROEL, 182",l'Antiga Esquerra de l'Eixample,MEDITERRANEO,Abierto,Si,3.45,9.4,93,35,2.14996,41.39052
57,Antigua,"C. MARIA CUBI, 59",Sant Gervasi - Galvany,MEDITERRANEO,None,No,None,9.4,24267,30,2.14929,41.39801
58,Aquarella Music Restaurant,"G.V.. CORTS CATALANES, 572",Sant Antoni,MEDITERRANEO,None,No,None,0.0,0,25,2.16177,41.38422
59,Arcano,"C. MERCADERS, 10","Sant Pere, Santa Caterina i la Ribera",MEDITERRANEO,Abierto,No,None,0.0,0,25,2.17867,41.385
60,Arco Iris,"C. ROGER DE FLOR, 216",la Dreta de l'Eixample,VEGETARIANO,None,No,None,0.0,0,9,2.17147,41.39986
61,Arnau,"C. SANT PAU, 9",el Raval,CREATIVO,Abierto,No,None,0.0,0,30,2.17284,41.37998
62,Arrosseria Xàtiva Les Corts,"C. BORDEUS, 35",les Corts,MEDITERRANEO,Abierto,No,None,8.5,889,30,2.14024,41.38924
63,Arrosseria Xàtiva Sant Antoni,"C. MUNTANER, 6",Sant Antoni,ARROCERIA,Abierto,Si,7.22,9.0,336,30,2.1628,41.38418
64,Arroz Hofmann,"PG. SANT JOAN, 36",el Fort Pienc,MEDITERRANEO,Abierto,Si,18.0,0.0,0,20,2.17785,41.39352
65,Artesana Bio,"C. ENTENÇA, 57",la Nova Esquerra de l'Eixample,MEDITERRANEO,None,Si,5.4,0.0,0,35,2.15236,41.37819
66,ArtiSa Barcelona,"C. COLOM, 2",el Barri Gòtic,MEDITERRANEO,Cerrado,Si,11.25,0.0,0,65,2.17488,41.37973
67,Asador Sidrería Donosti,"C. ROSSELLO, 365",el Camp d'en Grassot i Gràcia Nova,VASCO,Abierto,Si,3.3,0.0,0,37,2.16928,41.40246
68,Asador de Aranda - Londres,"C. LONDRES, 94",l'Antiga Esquerra de l'Eixample,ASADOR,Abierto,Si,9.0,0.0,0,35,2.15107,41.39358
69,Asador de Aranda - Pau Claris,"C. PAU CLARIS, 70",la Dreta de l'Eixample,CASTELLANO,Abierto,Si,12.2,0.0,0,35,2.17198,41.38924
70,Asador de Aranda - Tibidabo,"AV. TIBIDABO, 31",Sant Gervasi - la Bonanova,ASADOR,Abierto,No,None,0.0,0,35,2.13448,41.41349
71,Asador de Burgos,"C. BRUC, 120",la Dreta de l'Eixample,ASADOR,Abierto,Si,8.1,0.0,0,30,2.16705,41.39637
72,Asador del Mar,"C. BORI I FONTESTA, 45",Sant Gervasi - Galvany,ASADOR,None,No,None,0.0,0,28,2.13729,41.39249
73,Askadinya,"C. VERDI, 28",la Vila de Gràcia,ARABE,Abierto,No,None,9.4,232,18,2.15695,41.40388
74,Assunta Barcelona,"C. PROVENÇA, 300",la Dreta de l'Eixample,ITALIANO,None,Si,24.3,9.4,637,50,2.16246,41.39533
75,Auto Rosellón,"C. ROSSELLO, 182",l'Antiga Esquerra de l'Eixample,MEDITERRANEO,Cerrado,No,None,8.5,384,25,2.15653,41.39255
76,Avocado - Universitat,"C. MUNTANER, 32",l'Antiga Esquerra de l'Eixample,LATINO,None,Si,2.25,9.4,220,15,2.16109,41.38548
77,B Lounge - Hotel Barceló Raval,"RBLA. RAVAL, 17",el Raval,MEDITERRANEO,None,Si,18.0,0.0,0,26,2.1696,41.37906
78,B.24 - Fairmont Rey Juan Carlos I,"AV. DIAGONAL, 661",la Maternitat i Sant Ramon,FUSION,None,No,None,9.0,562,35,2.10885,41.38142
79,BARCINO FOOD BRUNCH,"C. COMTE URGELL, 222",l'Antiga Esquerra de l'Eixample,INTERNACIONAL,None,Si,8.55,8.8,54,12,2.14974,41.38902
80,BELLAKO Sant Joan,"PG. SANT JOAN, 66",la Dreta de l'Eixample,TURCO,Abierto,Si,13.5,0.0,0,12,2.17361,41.39672
81,BENE ASSAI,"C. DOCTOR CARULLA, 61",les Tres Torres,ITALIANO,Abierto,No,None,8.1,27,20,2.1319,41.40139
82,BO di NAPOLI,"C. VALENCIA, 197",l'Antiga Esquerra de l'Eixample,Sin información,None,Si,10.8,0.0,0,40,2.15908,41.38964
83,BOO Restaurant & Beach Club,"PG. MARITIM DE LA MAR BELLA, 100",Diagonal Mar i el Front Marítim del Poblenou,MEDITERRANEO,None,No,None,0.0,0,30,2.21441,41.39961
84,Babula Bar 1937,"C. PAU CLARIS, 139",la Dreta de l'Eixample,MEDITERRANEO,Abierto,Si,7.22,9.6,429,35,2.16574,41.39362
85,Bacus,"C. VILADOMAT, 289",la Nova Esquerra de l'Eixample,CATALAN,Abierto,No,None,0.0,0,25,2.14566,41.38835
86,Bagaría,"C. NOU DE LA RAMBLA, 152",el Poble Sec,ITALIANO,Abierto,Si,2.4,0.0,0,14,2.16717,41.37234
87,Balius Bar Gastrococtelería,"C. PUJADES, 196",el Poblenou,MEDITERRANEO,None,Si,11.25,0.0,0,20,2.20154,41.40217
88,Balmes,"C. BALMES, 413",Sant Gervasi - la Bonanova,MARISQUERIA,Abierto,Si,6.75,9.1,314,40,2.13768,41.40751
89,Balthazar,"C. ROSSELLO, 189",l'Antiga Esquerra de l'Eixample,MEDITERRANEO,None,Si,4.5,8.9,131,20,2.15516,41.39195
90,Bananas,"C. FUSINA, 7","Sant Pere, Santa Caterina i la Ribera",INTERNACIONAL,Abierto,Si,18.0,0.0,0,30,2.18319,41.38651
91,Bao Bar by Paco Pérez,"C. ARIMON, 48",Sant Gervasi - la Bonanova,AUTOR,Cerrado,No,None,0.0,0,20,2.13599,41.40336
92,Bar Bas,"RBLA. CATALUNYA, 7",la Dreta de l'Eixample,MEDITERRANEO,Abierto,Si,21.0,0.0,0,30,2.16766,41.38779
93,Bar Bodega Can Ros,"C. ROGER DE FLOR, 303",el Camp d'en Grassot i Gràcia Nova,MEDITERRANEO,Abierto,Si,7.95,0.0,0,10,2.1642,41.40502
94,Bar Mut,"C. PAU CLARIS, 192",la Dreta de l'Eixample,ESPAÑOL,Abierto,Si,11.4,0.0,0,20,2.16126,41.39733
95,Bar Paradis,"C. GIRONA, 161",la Dreta de l'Eixample,Sin información,None,Si,4.5,0.0,0,12,2.16545,41.39896
96,Bar Veraz - The Barcelona EDITION,"AV. FRANCESC CAMBO, 14","Sant Pere, Santa Caterina i la Ribera",INTERNACIONAL,None,Si,9.0,0.0,0,35,2.17773,41.38598
97,Bar petit tibetano,"C. BRUC, 121",la Dreta de l'Eixample,ASIATICO,None,Si,2.25,8.7,26,18,2.16604,41.3968
98,Barcelonas Restaurant,"CTRA. VALLVIDRERA TIBIDABO, 83","Vallvidrera, el Tibidabo i les Planes",MEDITERRANEO,None,No,None,0.0,0,65,2.12001,41.42454
99,Barcino,"RBLA. CATALUNYA, 13",la Dreta de l'Eixample,MEDITERRANEO,Abierto,Si,21.0,8.7,685,25,2.16738,41.38803
100,Barlovento,"RBLA. POBLENOU, 21",el Poblenou,ESPAÑOL,None,Si,13.5,8.4,188,20,2.20415,41.39877
101,Barnabier,"C. MARINA, 16",la Vila Olímpica del Poblenou,MEDITERRANEO,Abierto,Si,58.5,8.7,84,29,2.19737,41.38734
102,Barítimo,"MOLL ESPANYA, 5",el Barri Gòtic,MEDITERRANEO,Abierto,No,None,8.7,420,26,2.18239,41.37545
103,BdGust,"VIA. AUGUSTA, 45",Sant Gervasi - Galvany,MEDITERRANEO,Abierto,Si,6.75,8.4,872,20,2.15347,41.39802
104,Beam,"C. DIPUTACIO, 200",l'Antiga Esquerra de l'Eixample,MEDITERRANEO,Abierto,Si,4.5,0.0,0,18,2.16105,41.38574
105,Beer'linale,"C. CARME, 7",el Raval,MEDITERRANEO,Abierto,No,None,0.0,0,20,2.17116,41.38271
106,Beirut Barcelona,"TRAV. CORTS, 283",les Corts,Sin información,None,Si,8.55,0.0,0,20,2.13423,41.38649
107,Belga Cuina,"C. VALENCIA, 205",l'Antiga Esquerra de l'Eixample,BELGA,Cerrado,Si,5.4,0.0,0,35,2.15976,41.39017
108,Bella Italia,"C. ROGER DE LLURIA, 87",la Dreta de l'Eixample,Sin información,Abierto,Si,2.4,0.0,0,26,2.16604,41.3951
109,Bella Sushi,"C. CALABRIA, 98",Sant Antoni,JAPONES,None,Si,2.25,0.0,0,12,2.15562,41.37937
110,Bembi,"C. CONSELL DE CENT, 377",la Dreta de l'Eixample,INDIO,None,Si,8.1,9.5,5018,23,2.16905,41.39376
111,Beryti,"TRAV. GRACIA, 228",el Camp d'en Grassot i Gràcia Nova,LIBANES,None,Si,1.2,0.0,0,20,2.16251,41.40416
112,Bestial,"C. RAMON TRIAS FARGAS, 2",la Barceloneta,MEDITERRANEO,Abierto,Si,40.0,0.0,0,41,2.19656,41.38602
113,Big Kokka,"PTGE. MERCANTIL, 1","Sant Pere, Santa Caterina i la Ribera",FUSION,Cerrado,No,None,0.0,0,25,2.18416,41.3862
114,Bilbao,"C. PERILL, 33",la Vila de Gràcia,MEDITERRANEO,None,No,None,0.0,0,35,2.16189,41.39977
115,Bilou,"C. PAU CLARIS, 85",la Dreta de l'Eixample,CATALAN,Cerrado,No,None,9.4,97,18,2.17069,41.38992
116,BioXoco,"C. INDUSTRIA, 252",el Camp de l'Arpa del Clot,Sin información,Abierto,Si,2.4,8.8,36,14,2.17862,41.41267
117,Biocenter,"C. PINTOR FORTUNY, 25",el Raval,VEGETARIANO,None,No,None,9.2,1904,19,2.16933,41.38259
118,Bismad,"C. VILLARROEL, 23",Sant Antoni,INDIO,None,Si,4.5,0.0,0,12,2.16161,41.3814
119,Bistro 1925 - Gran Hotel La Florida,"CTRA. VALLVIDRERA TIBIDABO, 83","Vallvidrera, el Tibidabo i les Planes",MEDITERRANEO,None,No,None,0.0,0,50,2.12001,41.42454
120,Bistrot del Mercado,"C. BALBOA, 16",la Barceloneta,MEDITERRANEO,Abierto,Si,4.5,8.3,572,25,2.18866,41.38222
121,Black Cherry Persa,"C. ARIBAU, 158",l'Antiga Esquerra de l'Eixample,IRANI,Abierto,Si,3.45,0.0,0,20,2.15435,41.39228
122,Blanc by Carme Ruscalleda - Mandarin Oriental,"PG. GRACIA, 38",la Dreta de l'Eixample,MEDITERRANEO,Abierto,No,None,9.3,931,50,2.16666,41.3912
123,Blat & Plat,"AV. DIAGONAL, 114",Provençals del Poblenou,MEDITERRANEO,Abierto,Si,8.1,9.2,272,15,2.20412,41.40788
124,Blat Net,"C. SITGES, 6",el Raval,Sin información,None,No,None,0.0,0,21,2.16978,41.38435
125,Bo de Boqueria,"C. PETXINA, 5",el Raval,MEDITERRANEO,Abierto,No,None,8.8,416,25,2.1724,41.38148
126,Bo de Gracia,"C. DIPUTACIO, 269",la Dreta de l'Eixample,MEDITERRANEO,Abierto,Si,5.7,8.3,156,20,2.16746,41.39087
127,Boca Boca,"PG. FABRA I PUIG, 211",Vilapicina i la Torre Llobeta,MEDITERRANEO,Abierto,Si,14.85,0.0,0,12,2.17602,41.43016
128,Boca Grande,"PTGE. CONCEPCIO, 12",la Dreta de l'Eixample,MEDITERRANEO,Abierto,No,None,0.0,0,50,2.15993,41.39452
129,Boca Oreja,"C. BLAI, 28",el Poble Sec,INTERNACIONAL,Cerrado,Si,9.0,9.2,228,27,2.16429,41.37382
130,Bocarius,"C. COMTE URGELL, 224",l'Antiga Esquerra de l'Eixample,Sin información,None,Si,8.55,8.8,299,18,2.14935,41.3893
131,Bocca Di Bonifacio - Sardenya,"C. SARDENYA, 360",la Sagrada Família,ITALIANO,Abierto,Si,7.2,9.1,335,15,2.17089,41.40545
132,Bocca di Bonifacio - Ausiàs Marc,"C. AUSIAS MARC, 43",la Dreta de l'Eixample,ITALIANO,Abierto,Si,13.5,9.2,419,20,2.17695,41.39248
133,Bodega Bonay,"G.V.. CORTS CATALANES, 700",la Dreta de l'Eixample,MEDITERRANEO,Abierto,No,None,9.2,11,25,2.17429,41.39363
134,Bodega Brugal - Tast de Vins,"C. MORALES, 30",les Corts,CATALAN,None,No,None,0.0,0,20,2.14051,41.38827
135,Bodega Joan 140,"C. ENTENÇA, 140",la Nova Esquerra de l'Eixample,MEDITERRANEO,None,Si,8.55,8.2,9,18,2.14768,41.38196
136,Bodega La Puntual,"C. MONTCADA, 22","Sant Pere, Santa Caterina i la Ribera",MEDITERRANEO,Abierto,No,None,0.0,0,25,2.18175,41.38453
137,Bodega Vidrios y Cristales,"PG. ISABEL II, 6","Sant Pere, Santa Caterina i la Ribera",MEDITERRANEO,None,Si,6.75,9.7,7,20,2.18275,41.3816
138,Bollywood,"AV. DRASSANES, 27",el Raval,INDIO,Abierto,Si,24.0,8.5,117,20,2.17222,41.37678
139,Bon Marisc,"PG. JOAN BORBO COMTE BARCELONA, 3",la Barceloneta,MEDITERRANEO,None,Si,13.5,0.0,0,30,2.18714,41.38124
140,Bona sort sushi,"C. MARINA, 191",el Fort Pienc,JAPONES,Abierto,Si,13.5,0.0,0,20,2.17932,41.40023
141,Bonanova,"C. SANT GERVASI DE CASSOLES, 103",Sant Gervasi - la Bonanova,MEDITERRANEO,Abierto,No,None,0.0,0,60,2.13503,41.40621
142,Boraz,"C. MUNTANER, 124",l'Antiga Esquerra de l'Eixample,MEDITERRANEO,Abierto,Si,5.4,9.7,99,34,2.15568,41.38958
143,Botafumeiro,"C. GRAN DE GRACIA, 81",la Vila de Gràcia,MARISQUERIA,Abierto,No,None,0.0,0,75,2.15463,41.40046
144,Bouquet Experience,"C. ROGER DE LLURIA, 35",la Dreta de l'Eixample,MEDITERRANEO,Cerrado,Si,17.1,0.0,0,30,2.16994,41.3922
145,Braseria Cal Ramon,"AV. GAUDI, 74",la Sagrada Família,ASADOR,Abierto,Si,24.0,8.9,70,30,2.17452,41.41066
146,Braserito de Muntaner,"C. MUNTANER, 560",Sant Gervasi - la Bonanova,ARGENTINO,Abierto,Si,1.2,9.3,176,25,2.13456,41.40578
147,Braseros & Asoc,"C. PARLAMENT, 34",Sant Antoni,MEDITERRANEO,Cerrado,Si,9.0,0.0,0,30,2.1629,41.37657
148,Brasería El Glop,"C. CASP, 21",la Dreta de l'Eixample,MEDITERRANEO,None,Si,9.0,9.7,157,25,2.17064,41.38947
149,Brasería Piras,"C. MONTSENY, 10",la Vila de Gràcia,CATALAN,None,No,None,9.1,1086,15,2.15433,41.40169
150,Breakfast & Lunch,"PG. JOAN BORBO COMTE BARCELONA, 6",la Barceloneta,MEDITERRANEO,None,Si,22.5,0.0,0,15,2.18724,41.38099
151,Brisa Sin Prisa - Poblenou,"RBLA. POBLENOU, 59",el Poblenou,MEDITERRANEO,Abierto,Si,13.5,8.9,511,23,2.2014,41.40082
152,Bronzo Bar e Cucina - Born,"C. REC, 60","Sant Pere, Santa Caterina i la Ribera",ITALIANO,Abierto,Si,6.0,9.5,88,25,2.18403,41.38429
153,Bronzo Bar e Cucina - Eixample,"C. CORSEGA, 307",la Dreta de l'Eixample,ITALIANO,Abierto,Si,4.5,9.5,670,20,2.15724,41.39508
154,Bruc 33 Tapas,"C. BRUC, 33",la Dreta de l'Eixample,MEDITERRANEO,None,Si,4.5,8.9,1776,11,2.17295,41.39159
155,Brunch & Munch,"C. LONDRES, 54",l'Antiga Esquerra de l'Eixample,INTERNACIONAL,Abierto,Si,11.4,9.1,28,15,2.14757,41.39093
156,Brunch - Yummy Sundays - Monument Hotel 5*GL,"PG. GRACIA, 75",la Dreta de l'Eixample,MEDITERRANEO,None,No,None,0.0,0,59,2.16223,41.39394
157,Buenissimo Burger,"C. PERACAMPS, 7",el Raval,MEDITERRANEO,Cerrado,Si,6.75,9.6,22,15,2.17413,41.37596
158,Buenos Aires Grill Eixample,"C. VALENCIA, 189",l'Antiga Esquerra de l'Eixample,ARGENTINO,Abierto,Si,5.7,9.2,2269,27,2.15869,41.38935
159,Bun Bo Vietnam Raval,"C. ANGELS, 6",el Raval,VIETNAMITA,Abierto,Si,5.4,0.0,0,20,2.16879,41.3819
160,Bun Sichi,"PTGE. LLUIS PELLICER, 20",l'Antiga Esquerra de l'Eixample,JAPONES,None,No,None,9.0,2229,15,2.14978,41.39328
161,Buon Appetito,"AV. MARQUES DE ARGENTERA, 19","Sant Pere, Santa Caterina i la Ribera",Sin información,None,Si,6.75,9.3,576,15,2.18504,41.38502
162,Buoni e Cattivi,"C. AMARGOS, 13",el Barri Gòtic,Sin información,None,No,None,0.0,0,25,2.17411,41.38639
163,Burger Shack,"C. LONDRES, 65",l'Antiga Esquerra de l'Eixample,AMERICANO,Cerrado,Si,4.5,0.0,0,15,2.14856,41.39195
164,Burgertime,"C. CASANOVA, 9",Sant Antoni,AMERICANO,Abierto,Si,4.5,9.3,112,7,2.16269,41.38229
165,Burro Chilango,"C. CINCA, 86",Sant Andreu,MEXICANO,Abierto,Si,6.75,0.0,0,20,2.19276,41.4408
166,CARLITOS,"C. CALVET, 50",Sant Gervasi - Galvany,MEDITERRANEO,Abierto,Si,6.6,8.8,426,25,2.14281,41.39536
167,Ca L'Estevet,"C. VALLDONZELLA, 46",el Raval,CATALAN,None,No,None,9.3,363,30,2.16483,41.3833
168,Ca La Mariona,"C. AMIGO, 53",Sant Gervasi - Galvany,MEDITERRANEO,None,No,None,0.0,0,20,2.14348,41.39599
169,Ca La Montse,"C. BALBOA, 14",la Barceloneta,ARROCERIA,None,No,None,8.6,223,30,2.18836,41.38215
170,Ca Meua,"C. MALLORCA, 77",la Nova Esquerra de l'Eixample,ESPAÑOL,Abierto,Si,2.85,8.7,116,20,2.15068,41.38502
171,Ca l'Isidre,"C. FLORS, 12",el Raval,CATALAN,Abierto,No,None,8.9,214,65,2.16798,41.37597
172,Cabaret - The Barcelona EDITION,"AV. FRANCESC CAMBO, 14","Sant Pere, Santa Caterina i la Ribera",INTERNACIONAL,None,Si,9.0,0.0,0,60,2.17773,41.38598
173,Cabo Bar,"C. MARINA, 124",el Fort Pienc,MEDITERRANEO,None,Si,27.0,9.0,64,25,2.18516,41.39644
174,Cachitos Diagonal,"AV. DIAGONAL, 508",Sant Gervasi - Galvany,MEDITERRANEO,Abierto,Si,12.96,0.0,0,30,2.1537,41.39533
175,Caelis,"VIA. LAIETANA, 49",el Barri Gòtic,MEDITERRANEO,Abierto,No,None,9.5,1018,75,2.17435,41.38708
176,Cafetería Industrial,"C. PALLARS, 154",el Poblenou,AUTOR,None,Si,4.5,0.0,0,24,2.19529,41.39915
177,Cafè Godot,"C. SANT DOMENEC, 19",la Vila de Gràcia,MEDITERRANEO,None,No,None,9.5,271,30,2.15694,41.40018
178,Café Búho,"PG. SANT JOAN, 84",la Dreta de l'Eixample,MEDITERRANEO,Abierto,Si,21.6,0.0,0,15,2.17194,41.39797
179,Café Emma,"C. PAU CLARIS, 142",la Dreta de l'Eixample,FRANCES,Abierto,Si,8.55,0.0,0,33,2.16583,41.39387
180,Café Kafka,"C. FUSINA, 7","Sant Pere, Santa Caterina i la Ribera",MEDITERRANEO,Abierto,Si,18.0,9.8,426,35,2.18319,41.38651
181,Café Pendiente Brunch & Drinks,"C. ROSSELLO, 152",l'Antiga Esquerra de l'Eixample,MEDITERRANEO,Abierto,Si,4.5,9.3,220,16,2.15465,41.39115
182,Café San Telmo,"C. BUENOS AIRES, 60",l'Antiga Esquerra de l'Eixample,INTERNACIONAL,Abierto,Si,9.0,0.0,0,21,2.14856,41.39339
183,Café Turó,"C. TENOR VIÑAS, 1",Sant Gervasi - Galvany,INTERNACIONAL,None,Si,18.0,8.8,155,23,2.14199,41.3949
184,Cal Marius 449,"C. MALLORCA, 449",la Sagrada Família,ESPAÑOL,Abierto,Si,5.4,9.1,24,15,2.17839,41.40586
185,Cal Robert,"C. REQUESENS, 7",el Raval,MERCADO,None,Si,4.5,9.3,366,18,2.16385,41.37962
186,"Cal Trapella, Cuina de Mercat","C. FRANCISCO GINER, 22",la Vila de Gràcia,MEDITERRANEO,Cerrado,No,None,9.2,606,22,2.15927,41.3991
187,Calabrasa,"PG. BORN, 27","Sant Pere, Santa Caterina i la Ribera",CATALAN,Abierto,Si,9.0,9.0,1122,30,2.18306,41.3854
188,CalalaPasta,"C. ESPRONCEDA, 128",el Poblenou,Sin información,Abierto,Si,15.3,0.0,0,14,2.20296,41.40671
189,Caldeni,"C. VALENCIA, 452",la Sagrada Família,MEDITERRANEO,None,No,None,0.0,0,38,2.17703,41.40287
190,Caleuche,"C. SANT PAU, 116",el Raval,Sin información,Abierto,Si,18.0,0.0,0,20,2.16855,41.37638
191,Caliu,"C. ASSAONADORS, 31","Sant Pere, Santa Caterina i la Ribera",MEDITERRANEO,Abierto,No,None,0.0,0,24,2.18136,41.38633
192,Caliu de Gràcia,"C. BAILEN, 218",el Camp d'en Grassot i Gràcia Nova,MEDITERRANEO,Abierto,Si,9.0,9.0,81,30,2.16355,41.40243
193,Calle Santafe,"C. SANTA FE DE NOU MEXIC, 18",Sant Gervasi - Galvany,MEDITERRANEO,Abierto,Si,10.8,0.0,0,28,2.13737,41.39426
194,Can Boneta,"C. BALMES, 139",l'Antiga Esquerra de l'Eixample,CATALAN,None,No,None,9.7,175,28,2.15669,41.39371
195,Can Borbó,"PG. JOAN BORBO COMTE BARCELONA, 50",la Barceloneta,MEDITERRANEO,None,Si,37.5,5.0,102,40,2.18864,41.37745
196,Can Cargol,"C. VALENCIA, 324",la Dreta de l'Eixample,MEDITERRANEO,Cerrado,No,None,8.7,441,20,2.16746,41.39551
197,Can Costa,"PG. JOAN BORBO COMTE BARCELONA, 70",la Barceloneta,MEDITERRANEO,None,Si,15.0,0.0,0,35,2.18929,41.37588
198,Can Culleres,"C. BILBAO, 79",el Poblenou,MEDITERRANEO,None,Si,12.78,8.9,20,25,2.2022,41.40368
199,Can Culleretes,"C. QUINTANA, 5",el Barri Gòtic,CATALAN,Abierto,No,None,8.9,1858,27,2.17442,41.38124
200,Can Fisher,"AV. LITORAL, 64",el Poblenou,MEDITERRANEO,None,No,None,9.1,652,40,2.20564,41.39434
201,Can Fusté,"G.V.. CARLES III, 50",les Corts,MEDITERRANEO,Abierto,No,None,9.1,193,50,2.12829,41.38322
202,Can Martí,"PTGE. FONT DEL MONT, 4","Vallvidrera, el Tibidabo i les Planes",CATALAN,None,No,None,0.0,0,18,2.11238,41.41389
203,Can Meli,"C. ARNAU OMS, 45",Porta,MEDITERRANEO,None,Si,9.0,0.0,0,20,2.17721,41.43086
204,Can Miserias,"C. COMTE BORRELL, 106",Sant Antoni,MEDITERRANEO,Abierto,No,None,8.0,457,25,2.15819,41.38089
205,Can Pineda,"C. SANT JOAN DE MALTA, 55",el Clot,CATALAN,None,Si,11.25,9.5,425,50,2.19287,41.40861
206,Can Punyetes - Bonanova,"C. CIUTAT DE BALAGUER, 50",Sant Gervasi - la Bonanova,CATALAN,Abierto,No,None,0.0,0,17,2.13477,41.40401
207,Can Punyetes - Gràcia,"C. FRANCISCO GINER, 8",la Vila de Gràcia,CATALAN,Abierto,No,None,0.0,0,20,2.15969,41.39872
208,Can Ramonet,"C. LA MAQUINISTA, 17",la Barceloneta,MARISQUERIA,Abierto,Si,27.0,8.7,925,29,2.18894,41.38086
209,Can Saia,"C. BRUC, 157",la Dreta de l'Eixample,MEDITERRANEO,Abierto,Si,1.2,9.3,339,35,2.16307,41.39904
210,Can Solé,"C. SANT CARLES, 4",la Barceloneta,MEDITERRANEO,Abierto,No,None,9.4,574,60,2.18839,41.37892
211,Can Tresó,"C. ASTURIES, 18",la Vila de Gràcia,MEDITERRANEO,Abierto,No,None,0.0,0,20,2.1537,41.40293
212,Can Vador Diputació,"C. DIPUTACIO, 367",la Dreta de l'Eixample,MEDITERRANEO,Abierto,Si,6.0,8.7,378,30,2.17491,41.39643
213,Can Vador L'Illa Diagonal,"C. DEU I MATA, 69",les Corts,MEDITERRANEO,Abierto,Si,18.0,9.1,461,30,2.13612,41.38896
214,Can Vallés,"C. ARAGO, 95",la Nova Esquerra de l'Eixample,ESPAÑOL,Abierto,No,None,0.0,0,16,2.15121,41.38204
215,Candelecho charcoal grill,"C. BAILEN, 127",la Dreta de l'Eixample,INTERNACIONAL,Abierto,Si,4.5,0.0,0,30,2.16885,41.3981
216,Capet,"C. COMETA, 5",el Barri Gòtic,MEDITERRANEO,None,No,None,0.0,0,42,2.1789,41.38202
217,Capitan K10,"C. PADILLA, 323",la Sagrada Família,AMERICANO,None,Si,9.0,0.0,0,20,2.17272,41.40893
218,Carrot Café,"C. TANGER, 22",el Parc i la Llacuna del Poblenou,CREATIVO,Abierto,Si,2.4,8.8,557,13,2.18848,41.39915
219,Casa Cabo,"C. RAMON TURRO, 19",la Vila Olímpica del Poblenou,MEDITERRANEO,Cerrado,Si,11.25,8.8,15,25,2.19175,41.39168
220,Casa Chelis,"C. MUNTANER, 102",l'Antiga Esquerra de l'Eixample,ESPAÑOL,None,Si,16.2,0.0,0,25,2.15691,41.38868
221,Casa Dario,"C. CONSELL DE CENT, 256",l'Antiga Esquerra de l'Eixample,GALLEGO,Abierto,No,None,9.1,490,49,2.16119,41.38758
222,Casa Delfín,"PG. BORN, 36","Sant Pere, Santa Caterina i la Ribera",CATALAN,None,Si,18.0,8.6,682,25,2.18338,41.38527
223,Casa Fernández,"C. SANTALO, 46",Sant Gervasi - Galvany,ESPAÑOL,Abierto,Si,9.6,9.3,286,30,2.14538,41.39612
224,Casa Jaime,"C. CONSELL DE CENT, 222",l'Antiga Esquerra de l'Eixample,MEDITERRANEO,None,Si,15.0,8.7,204,19,2.15903,41.38595
225,Casa Jordi,"PTGE. MARIMON, 18",Sant Gervasi - Galvany,CATALAN,None,No,None,9.5,665,30,2.14775,41.39454
226,Casa Julia,"C. ENRIC GRANADOS, 14",l'Antiga Esquerra de l'Eixample,ESPAÑOL,None,Si,15.75,0.0,0,"[15, 20, 25, 35, 18, 15, 14, 15, 24, 20, 30, 20, 22, 10, 25, 18, 25, 22, 140, 31]",2.16026,41.38957
227,Casa Julio,"C. GARROFERS, 65",Porta,MEDITERRANEO,None,No,None,0.0,0,25,2.17663,41.43813
228,Casa Leopoldo,"C. SANT RAFAEL, 24",el Raval,MEDITERRANEO,Abierto,No,None,0.0,0,35,2.16951,41.37929
229,Casa Marzá - Platillos i Tapes,"VIA. AUGUSTA, 98",el Putxet i el Farró,MEDITERRANEO,Abierto,Si,13.5,0.0,0,18,2.1498,41.40117
230,Casa Muyo,"C. CONSELL DE CENT, 424",la Dreta de l'Eixample,MEDITERRANEO,Abierto,Si,8.55,0.0,0,25,2.17463,41.39766
231,Casa Pamplinas,"C. LONDRES, 84",l'Antiga Esquerra de l'Eixample,MEDITERRANEO,Abierto,No,None,0.0,0,20,2.15016,41.3929
232,Casa Sánchez,"MOLL GREGAL, 12",la Vila Olímpica del Poblenou,MEDITERRANEO,None,No,None,0.0,0,30,2.20102,41.38796
233,Casa Tejada,"C. TENOR VIÑAS, 3",Sant Gervasi - Galvany,MEDITERRANEO,None,Si,11.86,8.6,150,30,2.1421,41.39505
234,Casa Xica,"C. FRANÇA XICA, 20",el Poble-sec,ASIATICO,None,No,None,9.4,161,36,2.15943,41.3723
235,Casa de Tapes Cañota,"C. LLEIDA, 7",el Poble Sec,GALLEGO,Abierto,Si,4.8,0.0,0,19,2.15459,41.37427
236,Casa do Açaí Brunch & Coffee,"AV. ROMA, 43",la Nova Esquerra de l'Eixample,INTERNACIONAL,Sin información,Si,12.0,9.0,402,15,2.14656,41.38219
237,Casamaki,"C. EUROPA, 15",les Corts,JAPONES,Abierto,Si,4.5,8.9,114,13,2.1296,41.38717
238,Castell de Xativa,"C. VALENCIA, 360",la Dreta de l'Eixample,ARROCERIA,Abierto,No,None,9.2,424,28,2.17032,41.39785
239,Cata 1.81,"C. VALENCIA, 181",l'Antiga Esquerra de l'Eixample,CATALAN,Abierto,Si,9.0,0.0,0,15,2.15808,41.38891
240,Cata Born by Catacroquet,"C. PESCATERIA, 6","Sant Pere, Santa Caterina i la Ribera",MEDITERRANEO,None,No,None,8.5,33,24,2.18389,41.3841
241,Catacroquet,"C. ALMOGAVERS, 211",el Parc i la Llacuna del Poblenou,MEDITERRANEO,None,No,None,0.0,0,15,2.19624,41.40187
242,Catalunya,"C. AVINYO, 42",el Barri Gòtic,ESPAÑOL,None,No,None,8.0,188,20,2.17836,41.38051
243,Cecconi's,"PG. COLOM, 20",el Barri Gòtic,Sin información,None,Si,9.0,0.0,0,35,2.17959,41.37848
244,Cellarer Wine Bar,"C. MALLORCA, 211",l'Antiga Esquerra de l'Eixample,MEDITERRANEO,None,Si,5.58,9.3,73,28,2.15811,41.39062
245,CentOnze - Hotel Le Méridien,"C. RAMBLA, 111",el Raval,MEDITERRANEO,None,No,None,0.0,0,28,2.17092,41.3839
246,Central Barcelona,"C. ARIBAU, 86",l'Antiga Esquerra de l'Eixample,MEDITERRANEO,Abierto,Si,6.0,9.3,38,15,2.15794,41.38962
247,Cera 23,"C. CERA, 23",el Raval,MEDITERRANEO,None,No,None,9.6,1557,30,2.16624,41.37894
248,Ceviche103,"C. LONDRES, 103",l'Antiga Esquerra de l'Eixample,INSIDER,Abierto,Si,4.5,9.1,3302,35,2.15078,41.39364
249,Chaka Khan,"C. HOSPITAL, 104",el Raval,INTERNACIONAL,None,Si,22.5,0.0,0,18,2.16776,41.37972
250,Chakrumi,"C. BEJAR, 66",Hostafrancs,MEDITERRANEO,Cerrado,No,None,9.6,9,23,2.14442,41.37818
251,Chashu Ramen,"C. DIPUTACIO, 294",la Dreta de l'Eixample,JAPONES,Cerrado,No,None,7.3,71,15,2.17059,41.39294
252,Chennai Masala Dosa,"C. GALILEU, 326",les Corts,INDIO,None,No,None,0.0,0,15,2.13126,41.38618
253,Chevere restobar peruvian food,"C. TEMPLERS, 6",el Barri Gòtic,PERUANO,None,No,None,7.3,43,22,2.17792,41.38153
254,Chez Cocó,"AV. DIAGONAL, 465",l'Antiga Esquerra de l'Eixample,MEDITERRANEO,Abierto,No,None,8.8,1097,27,2.14725,41.3932
255,Chicha bcn Restaurante,"C. SEPULVEDA, 151",Sant Antoni,FUSION,Cerrado,Si,4.5,9.2,800,20,2.16119,41.38237
256,ChichaLimoná,"PG. SANT JOAN, 80",la Dreta de l'Eixample,MEDITERRANEO,None,Si,13.5,0.0,0,22,2.17264,41.39745
257,Chickster,"PG. SANT JOAN, 66",la Dreta de l'Eixample,MEDITERRANEO,Abierto,Si,13.5,0.0,0,20,2.17361,41.39672
258,Chico Bar,"C. MANDRI, 29",Sant Gervasi - la Bonanova,MEDITERRANEO,Abierto,Si,5.4,9.4,5,20,2.13383,41.40309
259,Chihuahua,"PG. MARAGALL, 107",el Guinardó,MEXICANO,None,Si,4.5,8.8,2607,21,2.1804,41.41887
260,Chiringuito BeGay,"PG. MARITIM DE LA MAR BELLA, 100",Diagonal Mar i el Front Marítim del Poblenou,MEDITERRANEO,None,No,None,0.0,0,15,2.21441,41.39961
261,Chiringuito las Sardinitas,"AV. LITORAL, 36",la Vila Olímpica del Poblenou,MEDITERRANEO,None,Si,81.0,0.0,0,25,2.20011,41.3898
262,Chongqing Liuyishou Hotpot,"C. CONSELL DE CENT, 303",l'Antiga Esquerra de l'Eixample,CHINO,Abierto,No,None,9.6,130,25,2.16252,41.38885
263,Chontaduro,"C. ARIBAU, 254",Sant Gervasi - Galvany,LATINO,Abierto,Si,3.3,0.0,0,20,2.14892,41.39648
264,Churruca 5,"C. ALMIRALL CHURRUCA, 5",la Barceloneta,MEDITERRANEO,None,Si,9.0,9.8,77,15,2.18989,41.37894
265,Chéri,"C. ENRIC GRANADOS, 122",l'Antiga Esquerra de l'Eixample,CATALAN,None,No,None,8.8,5370,35,2.15371,41.39452
266,Cibulet,"C. FRANCISCO GINER, 54",la Vila de Gràcia,FUSION,None,No,None,9.7,1039,"[15, 15, 60, 25, 30, 25, 20, 20, 25, 35, 15, 18, 15, 14, 15, 30, 20, 30, 25, 30, 36]",2.15834,41.39993
267,Cinc Sentits,"C. ENTENÇA, 60",la Nova Esquerra de l'Eixample,CATALAN,None,No,None,0.0,0,80,2.15237,41.37847
268,Cinco Jotas - Barcelona,"RBLA. CATALUNYA, 91",la Dreta de l'Eixample,ESPAÑOL,Abierto,Si,59.22,8.6,417,25,2.16065,41.39295
269,Citrus,"PG. GRACIA, 44",la Dreta de l'Eixample,MEDITERRANEO,Abierto,Si,59.22,9.2,706,25,2.16599,41.39174
270,City Ho Chi Minh,"C. CALABRIA, 234",la Nova Esquerra de l'Eixample,VIETNAMITA,None,Si,5.7,0.0,0,18,2.14683,41.38606
271,Ciudadela Parc - Hotel Ciudadela Parc,"PG. PUJADES, 5","Sant Pere, Santa Caterina i la Ribera",ARROCERIA,Abierto,Si,6.75,0.0,0,23,2.18381,41.38951
272,Clóset,"C. HOSPITAL, 157",el Raval,Sin información,None,Si,9.0,0.0,0,15,2.16645,41.37944
273,Cocina Hermanos Torres,"C. TAQUIGRAF SERRA, 20",les Corts,CREATIVO,Sin información,No,None,0.0,0,200,2.14001,41.38649
274,CocoVail Beer Hall,"C. ARAGO, 284",la Dreta de l'Eixample,INTERNACIONAL,Abierto,Si,11.4,9.3,332,20,2.16591,41.39274
275,Cocoa,"C. LEPANT, 241",la Sagrada Família,MEDITERRANEO,Sin información,Si,5.4,9.1,78,15,2.17803,41.40326
276,Colella,"C. PAU CLARIS, 190",la Dreta de l'Eixample,MEDITERRANEO,None,Si,6.75,8.7,862,20,2.16218,41.39659
277,Colors,"C. BILBAO, 30",el Poblenou,MEDITERRANEO,Abierto,Si,13.5,0.0,0,25,2.20489,41.40238
278,Come In,"C. VALENCIA, 334",la Dreta de l'Eixample,MEDITERRANEO,Abierto,No,None,0.0,0,20,2.16843,41.39642
279,Contempo by Eboca Restaurant,"C. BERGARA, 9",la Dreta de l'Eixample,CATALAN,None,Si,12.0,0.0,0,25,2.1682,41.38628
280,Copeta,"C. ARAGO, 459",la Sagrada Família,MEDITERRANEO,Abierto,Si,18.0,0.0,0,25,2.17901,41.40305
281,Corte & Brasa,"C. COMANDANT BENITEZ, 20",la Maternitat i Sant Ramon,ARGENTINO,Abierto,Si,1.2,9.1,189,22,2.12644,41.38021
282,Coure,"PTGE. MARIMON, 20",Sant Gervasi - Galvany,MEDITERRANEO,None,No,None,9.3,278,65,2.14789,41.39443
283,Creperie Bretonne,"C. BALMES, 274",Sant Gervasi - Galvany,FRANCES,None,No,None,9.3,14,20,2.14814,41.40095
284,Creperie Bretonne Anaick,"C. RAMON TRIAS FARGAS, 2",la Barceloneta,FRANCES,Abierto,Si,40.0,0.0,0,14,2.19656,41.38602
285,Creperie Les 3 Pommes,"C. ARAGO, 150",l'Antiga Esquerra de l'Eixample,CREPERIA,None,No,None,9.6,381,12,2.15645,41.38571
286,Creps Barcelona,"RBLA. POBLENOU, 27",el Poblenou,FRANCES,Abierto,Si,13.5,0.0,0,14,2.20358,41.39916
287,Cresta Colorada,"C. CORSEGA, 244",l'Antiga Esquerra de l'Eixample,MEXICANO,Abierto,Si,6.75,9.3,256,17,2.15503,41.39309
288,Crosmas Casanova,"C. CASANOVA, 158",l'Antiga Esquerra de l'Eixample,MEDITERRANEO,Abierto,Si,18.9,9.0,329,20,2.15342,41.38988
289,Cuba de Janeiro,"AV. MISTRAL, 33",Sant Antoni,MEDITERRANEO,None,Si,13.5,0.0,0,20,2.15715,41.37668
290,Cubix,"C. MARIA CUBI, 203",Sant Gervasi - Galvany,ITALIANO,Abierto,No,None,8.2,396,20,2.14396,41.39484
291,Cuina Mametora,"C. VIOLANT HONGRIA REINA ARAGO, 42",Sants - Badal,JAPONES,None,No,None,9.5,39,17,2.12869,41.37812
292,D Divine,"C. BALMES, 24",la Dreta de l'Eixample,INTERNACIONAL,Abierto,Si,5.7,0.0,0,21,2.16487,41.38779
293,D' Street Poke & Bowls,"C. SABINO ARANA, 36",la Maternitat i Sant Ramon,FUSION,Abierto,No,None,9.0,234,10,2.12488,41.3861
294,D'Aprop,"C. TRAFALGAR, 26","Sant Pere, Santa Caterina i la Ribera",CATALAN,Abierto,Si,3.6,0.0,0,35,2.17589,41.38885
295,D'Argento Barcelona,"PG. SANT JOAN, 72",la Dreta de l'Eixample,Sin información,Abierto,Si,20.28,0.0,0,19,2.17305,41.39713
296,D. Fenix Sushi,"C. NAPOLS, 141",el Fort Pienc,AUTOR,None,Si,6.75,0.0,0,12,2.17815,41.39618
297,D.O Vins i Platillos,"C. VERDI, 36",la Vila de Gràcia,MEDITERRANEO,None,No,None,0.0,0,15,2.15674,41.40407
298,Da Antonio,"C. VALLMAJOR, 33",Sant Gervasi - Galvany,ITALIANO,Abierto,No,None,8.7,17,25,2.13865,41.40097
299,Da Bruno,"C. CORTS, 16",les Corts,ITALIANO,None,Si,9.0,8.2,3,11,2.12888,41.38515
300,Dal presidente gastro bar,"C. CALABRIA, 93",Sant Antoni,ITALIANO,Cerrado,Si,4.5,0.0,0,20,2.15566,41.37906
301,Danoskar,"C. EQUADOR, 47",les Corts,MEDITERRANEO,None,Si,6.75,8.9,8,12,2.13962,41.38617
302,Daps,"AV. DIAGONAL, 469",l'Antiga Esquerra de l'Eixample,MEDITERRANEO,None,Si,19.44,0.0,0,24,2.14681,41.39307
303,De Cupé,"AV. MERIDIANA, 211",Navas,PERUANO,None,No,None,9.6,1830,25,2.18661,41.41604
304,De Gustibus Italiae,"C. RICARDO CALVO, 13",Sant Gervasi - la Bonanova,ITALIANO,Abierto,No,None,0.0,0,26,2.13301,41.4028
305,De Tapa Madre,"C. MALLORCA, 301",la Dreta de l'Eixample,MEDITERRANEO,None,Si,18.0,0.0,0,20,2.16652,41.39697
306,De Tapadillo,"C. FONOLLAR, 8","Sant Pere, Santa Caterina i la Ribera",FUSION,Cerrado,Si,9.0,9.1,1665,29,2.17973,41.38682
307,De Zero,"AV. SARRIA, 23",la Nova Esquerra de l'Eixample,ESPAÑOL,None,Si,2.4,0.0,0,10,2.14541,41.39009
308,Delaparra,"PG. TAULAT, 183",el Poblenou,ESPAÑOL,Cerrado,Si,6.75,8.8,11,25,2.20833,41.40173
309,Delhi Darbar,"PTGE. JOSEP LLOVERA, 11",Sant Gervasi - Galvany,INDIO,None,No,None,9.3,2731,20,2.14795,41.39616
310,Delirium,"C. CASTILLEJOS, 265",la Sagrada Família,ESPAÑOL,Abierto,Si,4.5,0.0,0,10,2.17831,41.40636
311,Denassus,"C. BLAI, 53",el Poble Sec,MEDITERRANEO,Abierto,Si,9.0,9.0,36,30,2.16271,41.3743
312,Descobertas Do Lusitano,"C. LLULL, 169",el Poblenou,PORTUGUES,Abierto,Si,4.5,0.0,0,22,2.2012,41.40041
313,Desgraciats,"C. PROVIDENCIA, 114",el Camp d'en Grassot i Gràcia Nova,CATALAN,Abierto,No,None,0.0,0,19,2.16076,41.40877
314,Di Como,"C. MUNTANER, 231",Sant Gervasi - Galvany,ITALIANO,Abierto,No,None,9.6,401,29,2.1488,41.39453
315,Di...Vini Sapori,"C. BUENOS AIRES, 28",l'Antiga Esquerra de l'Eixample,Sin información,None,Si,4.5,0.0,0,20,2.1465,41.39187
316,Diegos Bar Restaurant,"AV. MERIDIANA, 127",el Camp de l'Arpa del Clot,ESPAÑOL,None,Si,6.75,9.4,277,20,2.18657,41.40913
317,Dionissos,"AV. BOGATELL, 64",la Vila Olímpica del Poblenou,MEDITERRANEO,Cerrado,No,None,0.0,0,35,2.19242,41.39309
318,Diversus BCN,"C. LORETO, 22",les Corts,MEDITERRANEO,Cerrado,Si,3.6,0.0,0,20,2.14215,41.38967
319,Divina Stefy,"G.V.. CORTS CATALANES, 351",Hostafrancs,Sin información,None,Si,10.8,8.8,12,17,2.14699,41.37375
320,Dolceta 2,"C. COMTE URGELL, 266",l'Antiga Esquerra de l'Eixample,CATALAN,None,No,None,0.0,0,20,2.14697,41.39112
321,Dolci Parole,"C. CONSELL DE CENT, 329",la Dreta de l'Eixample,ITALIANO,None,Si,6.0,0.0,0,22,2.16382,41.38983
322,Domo Restaurant,"C. PROVENÇALS, 19",Diagonal Mar i el Front Marítim del Poblenou,MEDITERRANEO,None,Si,9.0,0.0,0,20,2.20991,41.40636
323,Domu,"C. MUNTANER, 69",l'Antiga Esquerra de l'Eixample,Sin información,Cerrado,Si,8.55,0.0,0,24,2.15892,41.38689
324,Don Curado Tasting,"RBLA. POBLENOU, 125",el Poblenou,MEDITERRANEO,Abierto,Si,27.0,8.6,70,15,2.19675,41.4043
325,Don Giovanni - Hotel NH Constanza,"C. DEU I MATA, 69",les Corts,INSIDER,Abierto,Si,18.0,0.0,0,30,2.13612,41.38896
326,Donde Siempre,"AV. DIAGONAL, 229",el Fort Pienc,VENEZOLANO,Abierto,Si,7.95,7.5,27,14,2.18308,41.40218
327,Doroteo BCN,"C. MARIA AGUILO, 31",el Poblenou,MEXICANO,Abierto,Si,6.75,0.0,0,25,2.20058,41.40301
328,Dos Torres,"VIA. AUGUSTA, 300",les Tres Torres,MEDITERRANEO,None,No,None,0.0,0,38,2.1287,41.39795
329,Doña Rosa,"C. FERLANDINA, 27",el Raval,MEDITERRANEO,None,Si,18.0,0.0,0,20,2.16643,41.38259
330,Dr. Zhang,"C. SEPULVEDA, 137",Sant Antoni,AUTOR,Abierto,Si,2.25,9.2,215,18,2.16031,41.3817
331,Dual Café,"C. COMTE BORRELL, 65",Sant Antoni,MEDITERRANEO,None,Si,4.5,9.3,84,16,2.1616,41.37798
332,Dumplings,"C. CREU COBERTA, 48",Hostafrancs,ASIATICO,None,Si,3.6,0.0,0,20,2.14608,41.3753
333,Dune Taperia,"C. SICILIA, 111",el Fort Pienc,MEDITERRANEO,Abierto,Si,4.5,8.2,34,20,2.18049,41.39616
334,Duri Fusión,"C. PRINCESA, 33","Sant Pere, Santa Caterina i la Ribera",MEDITERRANEO,Cerrado,No,None,8.0,784,25,2.18105,41.3859
335,EatMyTrip Brunch & Bakery,"C. CONSELL DE CENT, 378",la Dreta de l'Eixample,INTERNACIONAL,None,Si,6.0,0.0,0,12,2.17135,41.39519
336,EdeNova,"C. ROSSELLO, 209",l'Antiga Esquerra de l'Eixample,MEDITERRANEO,Abierto,Si,4.5,8.8,82,20,2.15654,41.39283
337,Edelweiss,"C. GRANADA DEL PENEDES, 19",Sant Gervasi - Galvany,JAPONES,None,No,None,0.0,0,200,2.15246,41.39674
338,Ekaterina Restaurant,"C. COMTE BORRELL, 129",Sant Antoni,RUSO,None,No,None,9.6,484,12,2.15796,41.38079
339,Ekubo,"C. COMTE URGELL, 108",l'Antiga Esquerra de l'Eixample,AUTOR,None,No,None,9.4,425,40,2.15657,41.38388
340,El 90 Restaurante Bar,"C. CONSELL DE CENT, 90",la Nova Esquerra de l'Eixample,MEDITERRANEO,None,Si,7.22,9.0,328,20,2.15113,41.37998
341,El Alebrije,"C. MALLORCA, 188",l'Antiga Esquerra de l'Eixample,MEXICANO,Abierto,No,None,0.0,0,23,2.15702,41.38954
342,"El Arrayán (Mandarin Oriental, Barcelona)","PG. GRACIA, 38",la Dreta de l'Eixample,MEXICANO,Abierto,No,None,0.0,0,40,2.16666,41.3912
343,El Asador del Bierzo,"C. MALLORCA, 18",Hostafrancs,MEDITERRANEO,Abierto,No,None,9.1,15,25,2.143,41.37897
344,El Bandarra Tapería,"C. TORRIJOS, 53",la Vila de Gràcia,MEDITERRANEO,Abierto,Si,8.4,0.0,0,22,2.15758,41.4045
345,El Bar,"C. RIBES, 46",el Fort Pienc,MEDITERRANEO,None,Si,9.0,0.0,0,20,2.18362,41.39886
346,El Bierzo a Tope,"C. DIPUTACIO, 159",l'Antiga Esquerra de l'Eixample,CASTELLANO,Abierto,Si,7.22,9.5,294,21,2.15864,41.38423
347,El Bonic,"C. VALENCIA, 246",la Dreta de l'Eixample,MEDITERRANEO,Cerrado,Si,8.1,8.9,268,35,2.16127,41.39102
348,El Brunch del Majestic,"PG. GRACIA, 68",la Dreta de l'Eixample,INTERNACIONAL,None,No,None,0.0,0,50,2.16382,41.39349
349,El Cafeti,"C. SANT RAFAEL, 18",el Raval,CATALAN,Abierto,No,None,0.0,0,27,2.1697,41.37937
350,El Calafate,"C. PARIS, 145",l'Antiga Esquerra de l'Eixample,ARGENTINO,Abierto,Si,10.07,9.3,2375,32,2.15005,41.39137
351,El Camino,"C. ROGER DE LLURIA, 24",la Dreta de l'Eixample,MEDITERRANEO,None,Si,8.55,0.0,0,25,2.17198,41.39089
352,El Canalla,"C. MAJOR DE SARRIA, 95",Sarrià,MEDITERRANEO,Abierto,No,None,0.0,0,30,2.12172,41.39957
353,El Cangrejo Loco,"MOLL GREGAL, 29",la Vila Olímpica del Poblenou,MARISQUERIA,None,No,None,8.9,968,40,2.20169,41.38842
354,El Capritx,"RBLA. POBLENOU, 100",el Poblenou,MEDITERRANEO,Abierto,Si,18.0,0.0,0,15,2.19985,41.40227
355,El Caserón,"C. BERLIN, 71",les Corts,Sin información,Cerrado,Si,8.1,0.0,0,25,2.13983,41.38382
356,El Cercle,"C. ARCS, 5",el Barri Gòtic,MEDITERRANEO,Abierto,No,None,8.1,609,40,2.17451,41.38456
357,El Chato,"G.V.. CORTS CATALANES, 697",el Fort Pienc,VASCO,None,No,None,9.1,629,24,2.17816,41.3972
358,El Clot,"C. ARAGO, 600",el Clot,MEDITERRANEO,None,Si,22.5,8.5,669,13,2.18754,41.40888
359,El Cochinillo Loco,"C. RAMBLA, 91",el Raval,MERCADO,None,No,None,0.0,0,20,2.17215,41.38218
360,El Establo,"PG. MARAGALL, 56",Navas,ARGENTINO,Abierto,Si,11.4,0.0,0,25,2.18059,41.41688
361,El Felino,"C. MARINA, 269",la Sagrada Família,Sin información,Abierto,Si,5.7,0.0,0,15,2.1736,41.40503
362,El Glop de la Rambla,"RBLA. CATALUNYA, 65",la Dreta de l'Eixample,MEDITERRANEO,None,Si,59.22,0.0,0,30,2.163,41.39123
363,El Gran Café,"C. AVINYO, 9",el Barri Gòtic,CATALAN,None,No,None,0.0,0,140,2.17636,41.38139
364,El Jardín del Edén,"C. JOVELLANOS, 3",el Raval,MEDITERRANEO,Abierto,No,None,0.0,0,18,2.16784,41.38524
365,El Kiosko - Barcelona,"AV. JOSEP TARRADELLAS, 153",les Corts,MEDITERRANEO,Abierto,No,None,9.1,994,18,2.14367,41.39156
366,El Mamón,"PTGE. PERE CALDERS, 2",Sant Antoni,MEDITERRANEO,None,Si,9.0,8.9,220,20,2.16291,41.37611
367,El Menjador de Xavier Pellicer,"C. PROVENÇA, 310",la Dreta de l'Eixample,CREATIVO,None,No,None,0.0,0,165,2.16342,41.39607
368,El Mexicano de Barcelona,"C. VILLARROEL, 233",l'Antiga Esquerra de l'Eixample,MEXICANO,Abierto,No,None,9.2,3688,18,2.14882,41.3911
369,El Mirall dels Encants,"C. CASTILLEJOS, 158",el Fort Pienc,MEDITERRANEO,Abierto,Si,27.0,0.0,0,30,2.18514,41.40152
370,El Modernista,"PG. GARCIA FARIA, 29",Diagonal Mar i el Front Marítim del Poblenou,CATALAN,Abierto,Si,27.0,8.4,313,25,2.21073,41.40148
371,El Nilo,"C. DOS DE MAIG, 241",la Sagrada Família,EGIPCIO,None,Si,3.45,0.0,0,18,2.18173,41.40714
372,El Nou Ramonet,"C. CARBONELL, 5",la Barceloneta,MEDITERRANEO,Abierto,No,None,9.1,708,35,2.18763,41.38174
373,El Palacio del Flamenco,"C. BALMES, 139",l'Antiga Esquerra de l'Eixample,ESPAÑOL,None,No,None,0.0,0,60,2.15669,41.39371
374,El Paraguayo,"C. PARC, 1",el Barri Gòtic,ASADOR,Cerrado,No,None,0.0,0,31,2.1784,41.37747
375,El Pescadito de Mandri,"C. MANDRI, 54",Sant Gervasi - la Bonanova,MEDITERRANEO,Abierto,Si,2.25,0.0,0,30,2.13266,41.40454
376,El Petit Firo,"AV. GAUDI, 81",la Sagrada Família,MEDITERRANEO,None,Si,24.0,8.6,133,18,2.17418,41.41045
377,El Pintor,"C. SANT HONORAT, 7",el Barri Gòtic,MEDITERRANEO,Abierto,No,None,8.9,178,30,2.17597,41.38308
378,El Provisional,"C. BALMES, 66",la Dreta de l'Eixample,MEDITERRANEO,Abierto,Si,2.25,9.4,257,25,2.16164,41.39018
379,El Racó - Còrsega,"C. CORSEGA, 196",l'Antiga Esquerra de l'Eixample,Sin información,None,Si,18.0,8.6,161,17,2.15207,41.39087
380,El Racó - Maremagnum,"MOLL ESPANYA, 5",el Barri Gòtic,ITALIANO,Abierto,No,None,0.0,0,18,2.18239,41.37545
381,El Racó - Rambla,"RBLA. CATALUNYA, 25",la Dreta de l'Eixample,Sin información,None,Si,49.5,9.2,506,30,2.16609,41.38898
382,El Racó d'en Pep,"C. SARDENYA, 404",el Baix Guinardó,MEDITERRANEO,Abierto,Si,9.0,0.0,0,"[15, 13, 65, 20, 25, 13, 12, 20, 25, 25, 20, 20, 120, 27, 22, 18, 10, 26, 24, 13]",2.16845,41.40722
383,El Racó de Montjuic,"C. FONT HONRADA, 49",el Poble-sec,Sin información,Abierto,No,None,0.0,0,20,2.15604,41.37234
384,El Racó de la Vila,"C. CIUTAT DE GRANADA, 33",el Poblenou,MEDITERRANEO,Abierto,No,None,0.0,0,25,2.19906,41.39748
385,El Rebost de Sant Antoni,"C. COMTE URGELL, 19",Sant Antoni,MEDITERRANEO,None,Si,4.5,9.5,1227,25,2.16112,41.38001
386,El Refugi,"C. ROGENT, 18",el Camp de l'Arpa del Clot,MEDITERRANEO,None,No,None,9.7,34,30,2.1859,41.40891
387,El Rey del Bacalao,"C. SICILIA, 394",el Camp d'en Grassot i Gràcia Nova,PORTUGUES,Abierto,Si,20.25,9.2,544,25,2.16798,41.40588
388,El Rincón - Grill Restaurant,"C. CARME, 28",el Raval,ASADOR,None,No,None,8.8,189,25,2.17026,41.38232
389,El Salón,"C. HOSTAL EN SOL, 6",el Barri Gòtic,MEDITERRANEO,None,No,None,9.4,977,25,2.1801,41.3818
390,El Secreto de Ellen,"C. DIPUTACIO, 280",la Dreta de l'Eixample,ESPAÑOL,Cerrado,Si,6.75,0.0,0,22,2.16942,41.39204
391,El Señorío,"C. CORSEGA, 607",la Sagrada Família,PERUANO,Abierto,Si,6.75,0.0,0,21,2.17504,41.40849
392,El Suquet de l'Almirall,"PG. JOAN BORBO COMTE BARCELONA, 65",la Barceloneta,ARROCERIA,None,Si,27.0,0.0,0,31,2.18913,41.3762
393,El Tarantín,"C. ARIBAU, 186",l'Antiga Esquerra de l'Eixample,LATINO,Abierto,No,None,0.0,0,28,2.15259,41.39366
394,El Tianguis Trompo,"C. SEPULVEDA, 151",Sant Antoni,MEXICANO,Cerrado,Si,4.5,0.0,0,17,2.16119,41.38237
395,El Túnel del Port,"MOLL GREGAL, 12",la Vila Olímpica del Poblenou,ARROCERIA,None,No,None,0.0,0,41,2.20102,41.38796
396,El Xalet de Montjuïc,"AV. MIRAMAR, 31",el Poble-sec,MEDITERRANEO,Abierto,No,None,9.0,758,45,2.16461,41.36909
397,El boliche del gordo Cabrera,"C. CONSELL DE CENT, 338",la Dreta de l'Eixample,Sin información,None,Si,6.0,0.0,0,38,2.16836,41.39296
398,El cafe d'en Victor,"C. TAPINERIA, 12",el Barri Gòtic,MEDITERRANEO,Abierto,Si,27.0,8.8,78,25,2.1767,41.3848
399,El calamarcito de Beirut,"C. LLULL, 229",el Poblenou,LIBANES,Cerrado,Si,6.75,0.0,0,15,2.20444,41.40287
400,El marinero,"C. MARQUES DE CAMPO SAGRADO, 12",Sant Antoni,MEDITERRANEO,None,Si,2.25,7.2,3,25,2.16399,41.37568
401,El pati,"C. TARRAGONA, 106",la Nova Esquerra de l'Eixample,MEDITERRANEO,Abierto,No,None,0.0,0,20,2.14411,41.37959
402,El pescadito de Balmes,"C. BALMES, 440",el Putxet i el Farró,ARROCERIA,None,Si,22.5,0.0,0,35,2.13818,41.40805
403,El rey de Istanbul,"C. RIBES, 23",el Fort Pienc,TURCO,None,Si,9.0,0.0,0,14,2.1816,41.39459
404,El tall Iberic,"C. VALENCIA, 637",el Clot,MEDITERRANEO,Abierto,Si,6.75,9.2,118,22,2.18857,41.41179
405,El xines Catalunya,"AV. MADRID, 100",Sants - Badal,CHINO,Abierto,No,None,9.8,4,15,2.12795,41.37859
406,El Último Agave,"C. ARAGO, 193",l'Antiga Esquerra de l'Eixample,MEXICANO,Abierto,Si,5.4,0.0,0,18,2.1589,41.38789
407,Electric Bcn,"C. ENTENÇA, 116",la Nova Esquerra de l'Eixample,ITALIANO,None,Si,8.55,0.0,0,20,2.14909,41.38089
408,Elephant Restaurant Lounge,"C. PAU CLARIS, 92",la Dreta de l'Eixample,MEDITERRANEO,Abierto,Si,6.75,0.0,0,35,2.17059,41.39027
409,Els Mosqueters,"C. CASANOVA, 138",l'Antiga Esquerra de l'Eixample,CATALAN,Cerrado,Si,5.7,0.0,0,25,2.15467,41.38862
410,Els Tres Porquets,"RBLA. POBLENOU, 165",Provençals del Poblenou,MEDITERRANEO,Abierto,No,None,9.3,805,38,2.1931,41.40711
411,Embat,"C. MALLORCA, 304",la Dreta de l'Eixample,MEDITERRANEO,Abierto,No,None,0.0,0,25,2.167,41.39706
412,Enoteca Paco Pérez - Hotel Arts Barcelona,"C. MARINA, 19",la Barceloneta,MEDITERRANEO,Cerrado,Si,32.0,0.0,55,180,2.19657,41.38711
413,Enric i Pau,"C. MINERIA, 4",la Marina de Port,ESPAÑOL,None,Si,8.1,0.0,0,20,2.13704,41.36382
414,Entre Brases,"C. ARIBAU, 186",l'Antiga Esquerra de l'Eixample,CREATIVO,Abierto,No,None,0.0,0,25,2.15259,41.39366
415,Entre Catas,"C. HUELVA, 47",Sant Martí de Provençals,ESPAÑOL,None,Si,4.5,9.4,104,25,2.19532,41.41687
416,Entre Tapes - Manso,"C. CALABRIA, 23",Sant Antoni,MEDITERRANEO,Abierto,Si,2.25,9.4,21,15,2.15947,41.37619
417,Entre Tapes - Meridiana,"AV. MERIDIANA, 408",Sant Andreu,MEDITERRANEO,Abierto,Si,2.4,0.0,0,15,2.18355,41.43169
418,Equilibri Bcn,"C. SARDENYA, 404",el Baix Guinardó,MEDITERRANEO,Abierto,Si,9.0,9.4,331,47,2.16845,41.40722
419,Eroica Caffè Barcelona,"C. CONSELL DE CENT, 350",la Dreta de l'Eixample,ITALIANO,None,No,None,9.4,93,30,2.16931,41.39368
420,Es tastet,"C. COMTE BORRELL, 72",Sant Antoni,MEDITERRANEO,None,Si,4.5,0.0,0,25,2.16027,41.37932
421,Espai Kru,"C. LLEIDA, 7",el Poble Sec,MARISQUERIA,Abierto,Si,4.8,0.0,0,35,2.15459,41.37427
422,Espai Quera,"C. PETRITXOL, 2",el Barri Gòtic,CATALAN,Abierto,No,None,0.0,12,20,2.17338,41.38253
423,Estel de Gràcia,"C. CORSEGA, 337",la Vila de Gràcia,MEDITERRANEO,Abierto,No,None,9.5,286,24,2.16079,41.39778
424,Esthvan,"C. PALENCIA, 45",la Sagrera,MARISQUERIA,Abierto,Si,2.25,9.3,179,34,2.19086,41.41866
425,Estimar Barcelona,"C. SANT ANTONI DELS SOMBRERERS, 3","Sant Pere, Santa Caterina i la Ribera",MEDITERRANEO,Abierto,No,None,9.3,365,80,2.18171,41.38418
426,Estruch,"AV. CATEDRAL, 3",el Barri Gòtic,MEDITERRANEO,Abierto,Si,13.5,0.0,0,23,2.17536,41.38461
427,Etapes,"C. ENRIC GRANADOS, 10",l'Antiga Esquerra de l'Eixample,MEDITERRANEO,Abierto,Si,4.5,9.4,1065,35,2.16151,41.38862
428,Europa Café,"AV. DIAGONAL, 469",l'Antiga Esquerra de l'Eixample,MEDITERRANEO,None,Si,19.44,0.0,0,25,2.14681,41.39307
429,Fa Patxoca,"C. MERCADERS, 28","Sant Pere, Santa Caterina i la Ribera",MEDITERRANEO,Abierto,Si,6.75,0.0,0,18,2.17768,41.38554
430,Fabrik,"C. LLULL, 169",el Poblenou,MEDITERRANEO,Abierto,Si,4.5,0.0,0,20,2.2012,41.40041
431,Falafelgi,"C. SARDENYA, 310",la Sagrada Família,LIBANES,None,Si,5.2,9.3,185,20,2.17474,41.40246
432,Farga de Beethoven,"C. BEETHOVEN, 11",Sant Gervasi - Galvany,MEDITERRANEO,Abierto,Si,16.5,0.0,0,23,2.14057,41.39311
433,Farga de Diagonal,"AV. DIAGONAL, 391",la Dreta de l'Eixample,CATALAN,None,Si,19.44,0.0,0,35,2.15795,41.39591
434,Farola,"C. REC, 67","Sant Pere, Santa Caterina i la Ribera",ITALIANO,None,Si,6.0,9.2,3,12,2.18345,41.38465
435,Fermentum,"C. ENRIC GRANADOS, 115",l'Antiga Esquerra de l'Eixample,Sin información,None,Si,6.75,8.0,586,30,2.15522,41.39306
436,Ferrum,"C. CORSEGA, 400",la Dreta de l'Eixample,MEDITERRANEO,Abierto,Si,3.6,9.2,423,22,2.16441,41.4002
437,Filomena Gastrobar,"C. ALDANA, 8",Sant Antoni,MEDITERRANEO,None,Si,4.2,9.4,204,18,2.16625,41.37568
438,Firo Tast,"AV. GAUDI, 81",la Sagrada Família,FUSION,None,Si,24.0,0.0,0,24,2.17418,41.41045
439,Fiser,"C. MUNTANER, 248",Sant Gervasi - Galvany,MEDITERRANEO,Abierto,Si,9.0,0.0,0,25,2.14893,41.39467
440,Fish & Chips Shop - Universitat,"C. ARIBAU, 18",l'Antiga Esquerra de l'Eixample,INTERNACIONAL,Abierto,No,None,0.0,0,12,2.16219,41.38641
441,Fishhh!,"AV. DIAGONAL, 557",les Corts,MARISQUERIA,Abierto,No,None,9.4,342,36,2.13492,41.38982
442,Fit Kitchen,"C. LONDRES, 91",l'Antiga Esquerra de l'Eixample,INTERNACIONAL,None,Si,3.45,0.0,0,13,2.14997,41.39302
443,Flamant,"C. ENRIC GRANADOS, 23",l'Antiga Esquerra de l'Eixample,MEDITERRANEO,None,Si,15.0,8.9,330,25,2.16135,41.38846
444,Flash Flash,"C. GRANADA DEL PENEDES, 25",Sant Gervasi - Galvany,MEDITERRANEO,Abierto,No,None,9.1,132,20,2.15224,41.39662
445,Flax&Kale,"C. TALLERS, 74",el Raval,MEDITERRANEO,None,Si,18.0,0.0,0,25,2.16521,41.38518
446,Flor de Maig Pintor Fortuny,"C. PINTOR FORTUNY, 29",el Raval,VEGETARIANO,Abierto,No,None,0.0,0,15,2.16915,41.38248
447,Flora Restaurant,"C. JONQUERES, 10","Sant Pere, Santa Caterina i la Ribera",EUROPEO,Cerrado,No,None,8.6,7,20,2.17417,41.38826
448,Florida Grill,"C. FLORIDABLANCA, 119",Sant Antoni,MEDITERRANEO,Abierto,Si,10.8,0.0,0,25,2.16143,41.38085
449,Foc i oli,"C. PARIS, 177",l'Antiga Esquerra de l'Eixample,CATALAN,Abierto,Si,8.1,9.4,191,22,2.1521,41.3929
450,Fogo,"C. CORSEGA, 231",l'Antiga Esquerra de l'Eixample,BRASILEÑO,None,Si,2.85,0.0,0,"[18, 9, 16, 35, 35, 30, 20, 24, 35, 12, 11, 65, 30, 35, 25, 40, 27, 19, 35, 35, 40]",2.15322,41.39207
451,Forastera,"C. SANCHO DE AVILA, 22",el Parc i la Llacuna del Poblenou,MEDITERRANEO,Abierto,Si,25.65,0.0,0,20,2.18854,41.39748
452,Forno d'Oro,"G.V.. CORTS CATALANES, 295",Hostafrancs,MEDITERRANEO,Abierto,Si,6.75,0.0,0,15,2.14499,41.37226
453,Foxos de Llúria,"C. ROGER DE LLURIA, 50",la Dreta de l'Eixample,GALLEGO,Abierto,Si,11.4,0.0,0,25,2.16945,41.39285
454,Foz,"C. DIPUTACIO, 174",l'Antiga Esquerra de l'Eixample,MEDITERRANEO,Abierto,Si,5.7,9.2,805,25,2.1591,41.3843
455,Frankfurt Joan,"C. JONCAR, 3",el Poblenou,MEDITERRANEO,Abierto,Si,3.45,0.0,0,16,2.20309,41.40014
456,Fratelli la Bufala,"C. PAU CLARIS, 72",la Dreta de l'Eixample,ITALIANO,Abierto,Si,6.0,9.2,264,16,2.17187,41.38932
457,Fuji Ya Barcelona,"C. GUILLEM TELL, 18",el Putxet i el Farró,ESPAÑOL,None,No,None,6.7,57,15,2.1489,41.4028
458,Fukuoka Sushi & Grill,"C. MILA I FONTANALS, 60",la Vila de Gràcia,JAPONES,None,No,None,9.4,1199,11,2.16139,41.4022
459,Fulano Mengano,"C. MUNTANER, 325",Sant Gervasi - Galvany,MEDITERRANEO,Abierto,Si,6.75,0.0,0,20,2.14493,41.39748
460,Futami,"C. ENRIC GRANADOS, 10",l'Antiga Esquerra de l'Eixample,JAPONES,Abierto,Si,4.5,0.0,0,21,2.16151,41.38862
461,Gaig Barcelona,"C. NAU SANTA MARIA, 5",les Corts,CATALAN,Abierto,No,None,0.0,0,40,2.13214,41.39142
462,Gala,"C. JOAN TORRAS, 26",Sant Andreu,MEDITERRANEO,Abierto,Si,9.0,9.2,344,15,2.19078,41.43758
463,Gallito,"PG. MARE NOSTRUM, 19",la Barceloneta,MEDITERRANEO,None,No,None,0.0,0,32,2.18986,41.36915
464,Gallo de Oro,"C. NAPOLS, 266",la Sagrada Família,MEXICANO,Abierto,No,None,0.0,0,25,2.17049,41.4023
465,Gamba de la Costa,"C. ROGER DE FLOR, 252",el Camp d'en Grassot i Gràcia Nova,MEDITERRANEO,Abierto,No,None,9.1,500,35,2.1684,41.40221
466,Gandhi Executive Food,"C. COMTE BORRELL, 160",la Nova Esquerra de l'Eixample,INDIO,Abierto,Si,6.75,0.0,0,20,2.15476,41.38344
467,Gardenia Taverna Gastronomica,"C. PARIS, 161",l'Antiga Esquerra de l'Eixample,MEDITERRANEO,Cerrado,Si,4.37,0.0,0,30,2.15107,41.39214
468,Gastrobar nº 30 Barceloneta,"PG. JOAN BORBO COMTE BARCELONA, 30",la Barceloneta,ESPAÑOL,None,Si,30.0,0.0,0,35,2.18804,41.37904
469,Gatsby Barcelona,"C. TUSET, 19",Sant Gervasi - Galvany,MEDITERRANEO,Abierto,No,None,9.2,660,40,2.15144,41.39621
470,Gaudí,"C. GRAN DE LA SAGRERA, 106",la Sagrera,MEDITERRANEO,None,Si,9.6,0.0,0,10,2.1912,41.42399
471,Gent del Barri,"C. ROGENT, 25",el Camp de l'Arpa del Clot,MEDITERRANEO,Abierto,Si,13.5,8.6,167,20,2.18461,41.40916
472,Gilda by Belgious,"C. AMPLE, 34",el Barri Gòtic,BELGA,Abierto,No,None,9.3,1708,24,2.18025,41.38073
473,Ginos - Maremagnum,"MOLL ESPANYA, 5",el Barri Gòtic,ITALIANO,Abierto,No,None,0.0,0,15,2.18239,41.37545
474,Ginos - Tuset,"C. TUSET, 2",Sant Gervasi - Galvany,Sin información,None,Si,12.15,0.0,0,15,2.15302,41.39536
475,Ginos Sepúlveda,"C. SEPULVEDA, 183",Sant Antoni,Sin información,None,Si,27.0,0.0,0,15,2.16331,41.38396
476,Giorgio Barcelona,"C. AUSIAS MARC, 3",la Dreta de l'Eixample,ITALIANO,Abierto,No,None,9.3,87,20,2.17367,41.39004
477,Goja Rooftop Experience - Hotel Renaissance Barcelona,"C. PAU CLARIS, 122",la Dreta de l'Eixample,MEDITERRANEO,None,Si,17.1,8.9,81,30,2.16727,41.39278
478,Gola Taperia,"C. TORDERA, 33",la Vila de Gràcia,ITALIANO,None,No,None,9.1,3349,30,2.16144,41.40163
479,Golfo de Bizkaia Born,"C. VIDRIERIA, 12","Sant Pere, Santa Caterina i la Ribera",VASCO,None,No,None,8.8,57,20,2.18307,41.38402
480,Goliard,"C. PROGRES, 6",la Vila de Gràcia,CATALAN,None,No,None,0.0,0,34,2.16065,41.39985
481,Gornishki,"AV. DIAGONAL, 608",Sant Gervasi - Galvany,MEDITERRANEO,Abierto,Si,7.65,8.8,13,15,2.1427,41.39268
482,Gorria,"C. DIPUTACIO, 421",el Fort Pienc,VASCO,Abierto,Si,8.55,9.7,236,70,2.178,41.39876
483,Gouthier Bar de Ostras,"C. MAÑE I FLAQUER, 8",Sarrià,MEDITERRANEO,None,Si,6.75,9.0,293,25,2.12445,41.39731
484,Grand Place Bistrot - Gran Hotel Havana,"G.V.. CORTS CATALANES, 647",la Dreta de l'Eixample,MEDITERRANEO,None,No,None,0.0,0,35,2.17221,41.39273
485,Greco's of Brooklyn,"C. MALLORCA, 308",la Dreta de l'Eixample,ITALIANO,Cerrado,Si,8.1,9.5,175,15,2.16718,41.39717
486,Green Spot,"C. REINA CRISTINA, 12","Sant Pere, Santa Caterina i la Ribera",INSIDER,Abierto,No,None,0.0,0,35,2.18369,41.38194
487,GreenVita - Diagonal,"AV. DIAGONAL, 3",Diagonal Mar i el Front Marítim del Poblenou,INTERNACIONAL,Abierto,Si,16.2,8.5,306,15,2.21642,41.41045
488,GreenVita Glòries,"AV. DIAGONAL, 208",el Parc i la Llacuna del Poblenou,MEDITERRANEO,Abierto,Si,43.56,8.7,154,15,2.19252,41.40497
489,Grill Room - Bar Thonet,"C. ESCUDELLERS, 8",el Barri Gòtic,MEDITERRANEO,Abierto,No,None,8.7,87,30,2.17606,41.37925
490,Grill restaurant,"C. FRENERIA, 5",el Barri Gòtic,ASADOR,Abierto,No,None,9.1,1134,25,2.17735,41.38373
491,Gu restaurante,"C. INDEPENDENCIA, 361",el Camp de l'Arpa del Clot,ASIATICO,Abierto,No,None,9.0,33,20,2.17845,41.41144
492,Guanabara,"C. CONSELL DE CENT, 403",la Dreta de l'Eixample,BRASILEÑO,Abierto,No,None,0.0,0,25,2.1712,41.39538
493,Gust,"G.V.. CORTS CATALANES, 633",la Dreta de l'Eixample,MEDITERRANEO,Cerrado,Si,10.8,0.0,0,22,2.17056,41.39147
494,Gut,"C. PERILL, 13",la Vila de Gràcia,Sin información,Abierto,No,None,9.5,928,25,2.16123,41.39935
495,H1898 - El Nido,"C. RAMBLA, 109",el Raval,MEDITERRANEO,None,No,None,0.0,0,27,2.1712,41.38351
496,Haddock - La Taverne Canaille,"C. VALENCIA, 181",l'Antiga Esquerra de l'Eixample,ESPAÑOL,Abierto,Si,9.0,0.0,0,40,2.15808,41.38891
497,Haha,"C. PARIS, 175",l'Antiga Esquerra de l'Eixample,JAPONES,Cerrado,Si,8.1,0.0,0,30,2.15199,41.39282
498,Hall0 Cocktail Bar - Monument Hotel 5*GL,"PG. GRACIA, 75",la Dreta de l'Eixample,MEDITERRANEO,None,No,None,0.0,0,40,2.16223,41.39394
499,Happy Day Vegetariano,"C. PAU CLARIS, 143",la Dreta de l'Eixample,VEGETARIANO,Abierto,Si,12.0,0.0,0,15,2.16554,41.39381
500,Happy Rock Bar & Grill,"G.V.. CORTS CATALANES, 373",la Nova Esquerra de l'Eixample,Sin información,Abierto,Si,42.75,8.5,111,28,2.14997,41.37603
501,Haveli,"C. CABANES, 32",el Poble-sec,INDIO,Abierto,No,None,0.0,0,30,2.17002,41.37326
502,Hawker 45,"C. CASP, 45",la Dreta de l'Eixample,ASIATICO,None,No,None,8.3,15,20,2.17418,41.39212
503,Hidalgo,"C. BALMES, 396",el Putxet i el Farró,MEDITERRANEO,None,Si,5.7,0.0,0,25,2.13927,41.40593
504,Hideout Burger,"C. CONSELL DE CENT, 242",l'Antiga Esquerra de l'Eixample,AMERICANO,Abierto,Si,8.1,0.0,0,15,2.16021,41.38683
505,Hisako,"C. LONDRES, 91",l'Antiga Esquerra de l'Eixample,JAPONES,None,Si,3.45,0.0,0,37,2.14997,41.39302
506,Hisop,"PTGE. MARIMON, 9",Sant Gervasi - Galvany,MEDITERRANEO,Abierto,No,None,0.0,0,41,2.14802,41.39449
507,Hofmann,"C. GRANADA DEL PENEDES, 14",Sant Gervasi - Galvany,MEDITERRANEO,Abierto,No,None,9.6,450,70,2.15301,41.39717
508,Hoja Santa by Albert Adrià y Paco Méndez,"AV. MISTRAL, 54",Sant Antoni,MEXICANO,Cerrado,Si,20.0,0.0,0,110,2.15416,41.37613
509,HonestFood Llacuna,"C. LLACUNA, 118",el Poblenou,Sin información,Cerrado,Si,4.5,0.0,0,14,2.19552,41.40382
510,Honkaku II,"C. MALLORCA, 105",la Nova Esquerra de l'Eixample,JAPONES,Abierto,No,None,8.8,730,15,2.1522,41.38618
511,Hummus Barcelona,"C. VALENCIA, 227",la Dreta de l'Eixample,VEGETARIANO,Abierto,Si,4.37,8.9,1387,17,2.1612,41.39124
512,INACTIU Buffet del Casino,"C. MARINA, 19",la Barceloneta,INTERNACIONAL,Cerrado,Si,32.0,0.0,0,35,2.19657,41.38711
513,IRATI Taverna Basca,"C. CARDENAL CASAÑAS, 17",el Barri Gòtic,VASCO,None,No,None,9.4,149,40,2.17349,41.38211
514,Idíl.lic,"C. MUNTANER, 32",l'Antiga Esquerra de l'Eixample,VEGETARIANO,None,Si,2.25,0.0,0,17,2.16109,41.38548
515,Idò DO Balear,"C. VILADOMAT, 43",Sant Antoni,MEDITERRANEO,Abierto,Si,2.4,0.0,0,15,2.16055,41.37708
516,Ignició,"C. CORSEGA, 244",l'Antiga Esquerra de l'Eixample,MEDITERRANEO,Abierto,Si,6.75,0.0,0,25,2.15503,41.39309
517,Ikibana Paral·lel,"AV. PARAL·LEL, 148",Sant Antoni,JAPONES,None,No,None,9.0,2433,40,2.15826,41.37521
518,Ikibana Sarrià,"C. DOCTOR FLEMING, 11",les Tres Torres,FUSION,Abierto,Si,45.0,9.0,2896,40,2.1352,41.39267
519,Il Capriccio Napoletano,"C. LAS NAVAS DE TOLOSA, 283",el Clot,ITALIANO,Abierto,Si,2.25,0.0,0,25,2.18816,41.41422
520,Il Capriccio Pizzeria Ristorante,"C. SANT ANTONI MARIA CLARET, 125",el Baix Guinardó,ITALIANO,Abierto,No,None,0.0,0,15,2.17159,41.40929
521,Il Cuore Di Napoli,"C. CORSEGA, 232",l'Antiga Esquerra de l'Eixample,ITALIANO,Abierto,Si,2.25,8.7,74,15,2.15437,41.39266
522,Il Giardinetto,"C. GRANADA DEL PENEDES, 22",Sant Gervasi - Galvany,ITALIANO,Abierto,No,None,8.9,175,28,2.15284,41.39707
523,Il Giardinetto di Gràcia,"C. SANT LLUIS, 37",la Vila de Gràcia,Sin información,Cerrado,No,None,0.0,0,20,2.15991,41.40529
524,Il Mercante Di Venezia,"C. JOSEP ANSELM CLAVE, 11",el Barri Gòtic,ITALIANO,Abierto,No,None,9.4,1912,24,2.1779,41.37739
525,Il Piccolo de Gràcia,"C. RAMON Y CAJAL, 146",la Vila de Gràcia,Sin información,None,No,None,0.0,0,30,2.16262,41.40501
526,Il Pomo d'Oro,"C. ROSSELLO, 239",la Dreta de l'Eixample,ITALIANO,None,Si,4.5,9.1,2272,17,2.15848,41.39432
527,Ilnamiki,"C. COMTE URGELL, 22",Sant Antoni,MEXICANO,None,Si,5.7,8.5,77,21,2.16165,41.38005
528,Impression Lounge,"C. BLAI, 46",el Poble Sec,MEDITERRANEO,Abierto,Si,9.0,8.8,13,20,2.16331,41.37419
529,Indian Herbs,"C. CORSEGA, 421",la Vila de Gràcia,INDIO,Abierto,Si,6.0,9.4,8,20,2.16467,41.4007
530,Indian Palace,"C. SANTALO, 73",Sant Gervasi - Galvany,INDIO,Abierto,No,None,0.0,0,20,2.14345,41.39741
531,Indian curry house,"C. MUNTANER, 443",Sant Gervasi - Galvany,INDIO,Abierto,No,None,9.4,29,18,2.13989,41.40124
532,Indochine Ly Leap,"C. MUNTANER, 82",l'Antiga Esquerra de l'Eixample,AUTOR,None,No,None,8.8,2926,50,2.15793,41.38792
533,Informal by Marc Gascons - The Serras Hotel Barcelona,"PG. COLOM, 9",el Barri Gòtic,MEDITERRANEO,Abierto,Si,18.0,9.0,1520,50,2.18082,41.38016
534,Inmortales Trattoria,"C. MARC AURELI, 27",Sant Gervasi - Galvany,Sin información,Abierto,No,None,8.7,1148,25,2.14241,41.40181
535,Inti&chaska,"C. ARAGO, 211",l'Antiga Esquerra de l'Eixample,PERUANO,Cerrado,Si,2.25,8.9,267,14,2.15991,41.38863
536,Intrepid de Gracia,"C. TORRENT DE OLLA, 176",la Vila de Gràcia,INTERNACIONAL,None,Si,2.4,0.0,0,15,2.15495,41.40427
537,Ipar-Txoko,"C. MOZART, 22",la Vila de Gràcia,VASCO,None,No,None,9.1,222,31,2.15811,41.39956
538,Italian Ocean,"C. JONQUERA, 4",el Poblenou,ITALIANO,None,Si,5.7,8.2,21,15,2.20699,41.40016
539,Iurantia,"C. CASANOVA, 42",l'Antiga Esquerra de l'Eixample,CREATIVO,Abierto,Si,5.4,0.0,0,22,2.16041,41.38434
540,Ivy Resto Lounge,"C. ARIBAU, 242",Sant Gervasi - Galvany,JAPONES,Abierto,Si,33.75,0.0,0,30,2.14974,41.3958
541,JOY JAPONES BUFFET,"C. ARAGO, 193",l'Antiga Esquerra de l'Eixample,JAPONES,Abierto,Si,5.4,9.0,681,15,2.1589,41.38789
542,Jaizkibel,"C. SICILIA, 180",el Fort Pienc,VASCO,None,No,None,8.8,148,29,2.18074,41.39625
543,Jaleo Barcelona,"C. TUSET, 5",Sant Gervasi - Galvany,MEDITERRANEO,None,Si,4.5,7.7,177,30,2.15207,41.39572
544,Jamón Jamón - Diagonal,"AV. DIAGONAL, 145",el Poblenou,MEDITERRANEO,None,No,None,0.0,0,14,2.19809,41.40587
545,Jamón Jamón - Europa,"C. EUROPA, 23",les Corts,MEDITERRANEO,Cerrado,Si,18.0,8.1,109,13,2.13018,41.38732
546,Jamón y Vino,"C. SARDENYA, 310",la Sagrada Família,MEDITERRANEO,None,Si,5.2,8.8,370,20,2.17474,41.40246
547,Jardin Mimosa - Mandarin Oriental Barcelona,"PG. GRACIA, 38",la Dreta de l'Eixample,MEDITERRANEO,Abierto,No,None,0.0,0,40,2.16666,41.3912
548,Jef Coffee & Pizza,"C. SANT ANTONI MARIA CLARET, 131",el Baix Guinardó,Sin información,Abierto,Si,4.5,0.0,0,15,2.17178,41.40941
549,Jobs Restaurant,"C. MALLORCA, 170",l'Antiga Esquerra de l'Eixample,MEDITERRANEO,Cerrado,Si,8.1,0.0,0,25,2.1558,41.3886
550,Jou's Food Experience,"C. LLULL, 226",el Poblenou,MEDITERRANEO,Abierto,Si,6.84,8.8,1206,15,2.20381,41.40213
551,Julivert Meu,"C. BONSUCCES, 7",el Raval,CATALAN,None,No,None,0.0,0,20,2.17018,41.38429
552,Jumilla,"C. ARTESA DE SEGRE, 6",Sant Gervasi - la Bonanova,MEDITERRANEO,Abierto,No,None,8.4,80,15,2.13479,41.40321
553,Kaguya Hime,"C. BAILEN, 221",la Vila de Gràcia,JAPONES,None,Si,3.45,0.0,0,20,2.16279,41.40269
554,Kahala Restaurante Hawaiano,"AV. DIAGONAL, 535",les Corts,LATINO,None,Si,7.88,0.0,0,19,2.13831,41.39075
555,Kamiya,"C. VALENCIA, 240",l'Antiga Esquerra de l'Eixample,JAPONES,Abierto,Si,7.6,0.0,0,14,2.16057,41.39051
556,KbarcelonA,"C. PROVENÇA, 426",la Sagrada Família,Sin información,None,Si,8.1,0.0,0,25,2.17184,41.40238
557,Kenji sushi & bar,"C. SEPULVEDA, 3",Sant Antoni,JAPONES,None,Si,8.55,8.3,8,15,2.15226,41.37563
558,Kiku Japones,"C. MADRAZO, 15",el Putxet i el Farró,JAPONES,Abierto,No,None,8.8,2017,20,2.15028,41.40114
559,Kiltro Restobar,"C. MONTSENY, 13",la Vila de Gràcia,FUSION,Cerrado,No,None,9.5,417,20,2.15446,41.40185
560,King Potato,"MOLL ESPANYA, 5",el Barri Gòtic,ITALIANO,Abierto,No,None,0.0,0,25,2.18239,41.37545
561,Kiu Nam,"C. VILLARROEL, 199",l'Antiga Esquerra de l'Eixample,VIETNAMITA,Abierto,No,None,0.0,0,16,2.15077,41.38963
562,Klevito's,"C. BADAJOZ, 115",el Parc i la Llacuna del Poblenou,MEDITERRANEO,None,No,None,8.6,31,16,2.1934,41.40006
563,Kobu - Comte Urgell,"C. COMTE URGELL, 272",l'Antiga Esquerra de l'Eixample,JAPONES,None,No,None,0.0,0,25,2.14667,41.39134
564,Kokka,"C. AVINYO, 30",el Barri Gòtic,PERUANO,Abierto,No,None,0.0,0,27,2.17734,41.38085
565,Komai Sushi Bar & Restaurant,"AV. DIAGONAL, 40",Diagonal Mar i el Front Marítim del Poblenou,JAPONES,Abierto,Si,11.25,8.9,25,15,2.21251,41.41029
566,Komeridiana,"AV. MERIDIANA, 346",la Sagrera,PERUANO,Abierto,Si,9.0,0.0,0,24,2.18579,41.42673
567,Konkai Sushi,"C. ROGER DE FLOR, 222",la Dreta de l'Eixample,JAPONES,Abierto,Si,6.75,8.8,588,16,2.17072,41.40039
568,Krampus,"C. SARAGOSSA, 89",el Putxet i el Farró,CREPERIA,Abierto,No,None,9.5,250,18,2.14696,41.4035
569,Kuna Bistro,"C. ARIBAU, 254",Sant Gervasi - Galvany,MEDITERRANEO,Abierto,Si,3.3,9.3,51,20,2.14892,41.39648
570,Kurai by Eboca Restaurant,"C. TARRAGONA, 99",Hostafrancs,JAPONES,None,No,None,8.6,1214,30,2.14833,41.37576
571,Kurz & Gut - Barceloneta,"PG. JOAN BORBO COMTE BARCELONA, 65",la Barceloneta,INTERNACIONAL,None,Si,27.0,0.0,0,15,2.18913,41.3762
572,Kurz & Gut - Gaudí,"AV. GAUDI, 5",la Sagrada Família,FRANCES,Abierto,Si,12.0,9.1,70,17,2.17426,41.40513
573,Kurz & Gut - Muntaner,"C. MUNTANER, 248",Sant Gervasi - Galvany,EUROPEO,Abierto,Si,9.0,8.0,52,15,2.14893,41.39467
574,Kuyi,"CAMI VELL DE SARRIA, 21",les Corts,JAPONES,None,No,None,0.0,0,15,2.14247,41.38785
575,L' Origen,"C. ARIBAU, 100",l'Antiga Esquerra de l'Eixample,MEDITERRANEO,Abierto,No,None,8.9,40,25,2.15707,41.39027
576,L'Aliança del Poble Nou,"RBLA. POBLENOU, 42",el Poblenou,MEDITERRANEO,Abierto,Si,18.0,8.9,31,18,2.20324,41.39973
577,L'Arròs - Passeig Joan de Borbó,"PG. JOAN BORBO COMTE BARCELONA, 12",la Barceloneta,MEDITERRANEO,None,Si,9.0,8.8,516,25,2.1875,41.38038
578,L'Eixample Barcelona,"C. VILADOMAT, 131",la Nova Esquerra de l'Eixample,MERCADO,Abierto,Si,8.55,0.0,0,15,2.15547,41.38092
579,L'Empanat,"C. MONLAU, 60",la Sagrera,CREATIVO,Abierto,Si,13.5,0.0,0,15,2.19049,41.42497
580,L'Escale Bistrot,"PTGE. LLUIS PELLICER, 12",l'Antiga Esquerra de l'Eixample,FRANCES,Cerrado,No,None,0.0,0,30,2.14957,41.39312
581,L'Havana,"C. LLEO, 1",el Raval,MEDITERRANEO,None,No,None,8.4,63,22,2.16504,41.38199
582,L'Hortet,"C. PINTOR FORTUNY, 32",el Raval,MEDITERRANEO,None,No,None,0.0,0,17,2.16865,41.38236
583,L'Oliva,"C. INDUSTRIA, 207",el Camp de l'Arpa del Clot,MEDITERRANEO,None,No,None,0.0,0,27,2.17699,41.41166
584,L'Ombú,"C. SARDENYA, 445",el Camp d'en Grassot i Gràcia Nova,MEDITERRANEO,None,Si,4.5,9.0,3346,21,2.16629,41.40859
585,L'Orangerie - Hotel La Florida,"CTRA. VALLVIDRERA TIBIDABO, 83","Vallvidrera, el Tibidabo i les Planes",MEDITERRANEO,None,No,None,0.0,0,53,2.12001,41.42454
586,L'Osteria del Contadino,"C. SARAGOSSA, 123",el Putxet i el Farró,ITALIANO,Abierto,No,None,9.3,294,29,2.14532,41.40437
587,L'aliança Les Corts,"C. NICARAGUA, 140",les Corts,GALLEGO,None,Si,13.5,7.9,18,25,2.13684,41.38728
588,L'Éclair - El Palace Barcelona,"G.V.. CORTS CATALANES, 668",la Dreta de l'Eixample,INTERNACIONAL,Abierto,No,None,0.0,0,40,2.17158,41.39159
589,LOCAL kitchen & bar,"C. CASP, 92",la Dreta de l'Eixample,MEDITERRANEO,Abierto,Si,9.0,0.0,0,15,2.17652,41.39359
590,La Balanza,"C. FOLGUEROLES, 3",Sant Gervasi - la Bonanova,ITALIANO,Abierto,Si,1.2,0.0,0,24,2.13501,41.40885
591,La Balsa,"C. INFANTA ISABEL, 4",Sant Gervasi - la Bonanova,MEDITERRANEO,Abierto,No,None,9.1,2178,43,2.13036,41.41087
592,La Barbacoa de Gracia,"C. TORRENT DE LES FLORS, 65",la Vila de Gràcia,CATALAN,Sin información,No,None,0.0,0,20,2.15982,41.40656
593,La Barra del Gourmet,"C. DIPUTACIO, 164",l'Antiga Esquerra de l'Eixample,MEDITERRANEO,None,Si,2.25,9.3,160,55,2.15826,41.38366
594,La Bella Donna,"AV. DIAGONAL, 593",les Corts,Sin información,Abierto,Si,18.0,0.0,0,24,2.13089,41.38877
595,La Biblioteca Gourmande,"C. JUNTA DE COMERÇ, 28",el Raval,MEDITERRANEO,None,No,None,0.0,0,30,2.17192,41.37926
596,La Biennal,"RBLA. POBLENOU, 76",el Poblenou,MEDITERRANEO,Abierto,Si,9.0,8.7,14,20,2.20114,41.40133
597,La Biga,"C. CLOT, 137",el Clot,Sin información,Abierto,Si,9.0,0.0,0,20,2.18943,41.41128
598,La Botiga - C.C. Arenas,"G.V.. CORTS CATALANES, 373",la Nova Esquerra de l'Eixample,MEDITERRANEO,Abierto,Si,42.75,8.4,65,20,2.14997,41.37603
599,La Botiga - Gandesa,"C. GANDESA, 10",les Corts,MEDITERRANEO,None,Si,22.5,8.7,323,20,2.13029,41.38838
600,La Broqueta,"RBLA. POBLENOU, 101",el Poblenou,MEDITERRANEO,Abierto,Si,13.5,0.0,0,16,2.19886,41.40278
601,La Buena Vida,"RBLA. POBLENOU, 59",el Poblenou,MEDITERRANEO,Abierto,Si,13.5,0.0,0,15,2.2014,41.40082
602,La Burrata,"C. BALMES, 283",Sant Gervasi - Galvany,Sin información,Cerrado,No,None,0.0,0,15,2.14777,41.40093
603,La Calaca,"C. CONCILI DE TRENTO, 90",Sant Martí de Provençals,MEXICANO,None,Si,4.8,8.8,40,15,2.19543,41.41327
604,La Caleta de Gràcia,"C. TORRENT DE OLLA, 121",la Vila de Gràcia,MEDITERRANEO,None,No,None,0.0,0,20,2.15645,41.40275
605,La Caleta de Sants,"CTRA. BORDETA, 54",Hostafrancs,VENEZOLANO,Cerrado,No,None,0.0,0,35,2.14512,41.37357
606,La Carassa,"C. BROSOLI, 1","Sant Pere, Santa Caterina i la Ribera",CATALAN,None,No,None,9.2,237,41,2.18049,41.38389
607,La Catrina de Barcelona,"C. SARDENYA, 196",el Fort Pienc,MEXICANO,None,Si,3.45,0.0,0,20,2.1817,41.39719
608,La Central - Arenas,"C. LLANÇA, 20",la Nova Esquerra de l'Eixample,MEDITERRANEO,None,Si,2.25,0.0,0,15,2.15028,41.3766
609,La Central - Diputación,"C. DIPUTACIO, 255",la Dreta de l'Eixample,MEDITERRANEO,None,Si,5.7,0.0,0,15,2.16592,41.38969
610,La Chelinda - Diagonal Mar,"AV. DIAGONAL, 3",Diagonal Mar i el Front Marítim del Poblenou,MEXICANO,Abierto,Si,16.2,0.0,0,18,2.21642,41.41045
611,La Chelinda - Enric Granados,"C. ENRIC GRANADOS, 9",l'Antiga Esquerra de l'Eixample,MEXICANO,None,Si,15.75,8.5,185,15,2.16235,41.3877
612,La Chula Cervecería Mexicana,"C. ROSSELLO, 483",la Sagrada Família,MEXICANO,None,Si,2.0,0.0,0,16,2.17583,41.40737
613,La Clara,"G.V.. CORTS CATALANES, 442",Sant Antoni,MEDITERRANEO,None,No,None,0.0,0,22,2.15395,41.37834
614,La Clotenca,"C. CLOT, 49",el Clot,Sin información,Cerrado,No,None,0.0,0,20,2.18809,41.40779
615,La Colosal Tapas & Cocktails,"RBLA. CATALUNYA, 23",la Dreta de l'Eixample,MEDITERRANEO,Abierto,Si,32.4,8.2,64,24,2.16624,41.38887
616,La Crema Canela,"PTGE. MADOZ, 6",el Barri Gòtic,MEDITERRANEO,None,Si,9.0,0.0,0,20,2.17476,41.38045
617,La Cuchara del Norte,"C. VILLARROEL, 106",l'Antiga Esquerra de l'Eixample,MEDITERRANEO,Abierto,Si,4.5,0.0,0,20,2.15678,41.38536
618,La Cuina,"C. BUENOS AIRES, 16",l'Antiga Esquerra de l'Eixample,MEDITERRANEO,None,Si,6.75,0.0,0,12,2.14561,41.39122
619,La Cuina de Laietana,"VIA. LAIETANA, 71",el Barri Gòtic,MEDITERRANEO,Abierto,No,None,9.2,390,25,2.17286,41.38829
620,La Cuina de l'Uribou,"C. TAQUIGRAF SERRA, 26",les Corts,INSIDER,Cerrado,No,None,0.0,0,30,2.14055,41.38677
621,La Dentellière,"C. AMPLE, 26",el Barri Gòtic,MEDITERRANEO,None,No,None,0.0,0,24,2.17999,41.38037
622,"La Distributrice ""Real and Healthy Food""","C. COMTE URGELL, 130",l'Antiga Esquerra de l'Eixample,MEDITERRANEO,None,Si,2.85,9.5,215,15,2.1554,41.38476
623,La Dolça Herminia,"C. MAGDALENES, 27",el Barri Gòtic,MEDITERRANEO,None,No,None,8.8,146,25,2.17446,41.38665
624,La Estrella,"C. OCATA, 6","Sant Pere, Santa Caterina i la Ribera",MEDITERRANEO,None,No,None,9.6,689,20,2.18509,41.3838
625,La Factoria Celta,"C. CLOT, 191",Navas,ESPAÑOL,None,Si,9.0,0.0,0,30,2.19103,41.41574
626,La Fianna,"C. MANRESA, 4","Sant Pere, Santa Caterina i la Ribera",INTERNACIONAL,Cerrado,No,None,0.0,0,32,2.18034,41.3834
627,La Flor de la Canela,"C. WATT, 8",Sants,PERUANO,None,No,None,8.2,84,18,2.13983,41.37583
628,La Focaccia,"C. CASTELLNOU, 44",les Tres Torres,ITALIANO,None,No,None,0.0,0,30,2.12907,41.3963
629,La Foixarda del Poble,"AV. FRANCESC FERRER I GUARDIA, 13",el Poble-sec,MEDITERRANEO,None,No,None,0.0,0,25,2.14674,41.36914
630,La Fonda,"C. ESCUDELLERS, 10",el Barri Gòtic,MEDITERRANEO,None,No,None,0.0,0,20,2.17621,41.37941
631,La Fonda del Port Olímpic,"MOLL GREGAL, 7",la Vila Olímpica del Poblenou,ESPAÑOL,None,No,None,8.8,1166,36,2.20169,41.38842
632,La Font de Prades,"AV. FRANCESC FERRER I GUARDIA, 13",el Poble-sec,CATALAN,None,No,None,9.1,210,30,2.14674,41.36914
633,La Font del Gat,"PG. SANTA MADRONA, 28",el Poble-sec,MEDITERRANEO,None,No,None,0.0,0,26,2.15772,41.36795
634,La Forchetta,"AV. MERIDIANA, 2",el Parc i la Llacuna del Poblenou,ITALIANO,Abierto,Si,33.75,8.9,214,20,2.18718,41.39205
635,La Forquilla de Fusta,"C. VALENCIA, 350",la Dreta de l'Eixample,MEDITERRANEO,None,Si,5.7,0.0,0,15,2.16955,41.39727
636,La Gambeta,"C. FUSINA, 3","Sant Pere, Santa Caterina i la Ribera",ARROCERIA,None,Si,9.0,9.3,4296,30,2.18287,41.38626
637,La Garchetta,"C. PUJADES, 445",el Besòs i el Maresme,MEDITERRANEO,Abierto,Si,13.5,0.0,0,15,2.21568,41.41308
638,La Garriga,"C. MALLORCA, 272",la Dreta de l'Eixample,CATALAN,Abierto,Si,4.14,9.1,178,28,2.16448,41.39514
639,La Gormanda,"C. ARIBAU, 160",l'Antiga Esquerra de l'Eixample,MEDITERRANEO,None,Si,7.95,9.3,332,40,2.15425,41.39245
640,La Gárgola,"C. ENTENÇA, 332",les Corts,CATALAN,None,No,None,0.0,0,20,2.13786,41.39033
641,La Isabela - Hotel 1898,"C. RAMBLA, 109",el Raval,MEDITERRANEO,None,No,None,0.0,0,30,2.1712,41.38351
642,La Jacaranda del Dos Torres,"VIA. AUGUSTA, 300",les Tres Torres,MEDITERRANEO,None,No,None,0.0,0,25,2.1287,41.39795
643,La Llimona,"C. CONSTANÇA, 6",les Corts,ESPAÑOL,None,Si,12.0,0.0,0,19,2.13627,41.38794
644,La Lluna,"C. SANT BONAVENTURA, 7",el Barri Gòtic,MEDITERRANEO,None,No,None,8.6,273,25,2.1718,41.38522
645,La Lolita,"RBLA. CATALUNYA, 27",la Dreta de l'Eixample,MEDITERRANEO,Abierto,Si,48.6,9.0,2036,25,2.16595,41.38908
646,La Lonja,"AV. JOSEP TARRADELLAS, 60",la Nova Esquerra de l'Eixample,MEDITERRANEO,Sin información,Si,10.5,8.9,5,30,2.14291,41.38515
647,La Lubina,"C. VILADOMAT, 257",la Nova Esquerra de l'Eixample,ARROCERIA,Sin información,Si,4.8,9.2,351,30,2.14796,41.38662
648,La Mama Acasa,"C. GUITARD, 41",Sants,ESTE,None,No,None,0.0,0,18,2.13775,41.38217
649,La Mar Bella,"C. TAULAT, 81",el Poblenou,ARROCERIA,None,Si,13.5,8.7,117,25,2.20438,41.3985
650,La Mar Salada,"PG. JOAN BORBO COMTE BARCELONA, 58",la Barceloneta,MARISQUERIA,None,Si,45.0,0.0,0,27,2.18892,41.37677
651,La Marimba,"C. PAU CLARIS, 128",la Dreta de l'Eixample,MEDITERRANEO,Abierto,Si,8.55,9.1,29,20,2.16697,41.39301
652,La Mesa de Ángel León,"PG. GRACIA, 38",la Dreta de l'Eixample,CREATIVO,Abierto,No,None,0.0,0,27,2.16666,41.3912
653,La Montiel37,"C. VILADOMAT, 37",Sant Antoni,MEDITERRANEO,None,Si,9.0,0.0,0,20,2.16109,41.37667
654,La Mostra,"C. RIERA DE SANT MIQUEL, 11",la Vila de Gràcia,ESPAÑOL,None,No,None,0.0,0,65,2.15733,41.3973
655,La Muscleria,"C. MALLORCA, 290",la Dreta de l'Eixample,MEDITERRANEO,None,Si,7.2,0.0,0,17,2.16622,41.39647
656,La Orquídea,"C. LLULL, 230",el Poblenou,LATINO,Abierto,Si,3.45,0.0,0,17,2.20463,41.40275
657,La Palmera,"C. ENRIC GRANADOS, 57",l'Antiga Esquerra de l'Eixample,MEDITERRANEO,Abierto,Si,9.0,9.5,651,33,2.15811,41.39092
658,La Perla,"C. NUMANCIA, 66",les Corts,ESPAÑOL,Abierto,Si,9.0,0.0,0,24,2.1382,41.38425
659,La Piemontesa Barcelona,"C. ENRIC GRANADOS, 60",l'Antiga Esquerra de l'Eixample,Sin información,Abierto,Si,6.75,0.0,0,24,2.15709,41.39192
660,La Pimpa,"C. EUROPA, 24",les Corts,ITALIANO,None,Si,4.5,0.0,0,15,2.13022,41.38707
661,La Pizza Loca,"C. CREU COBERTA, 64",Hostafrancs,Sin información,None,Si,5.7,8.9,4,15,2.14514,41.37531
662,La Pizzarra,"RBLA. RAVAL, 13",el Raval,Sin información,Abierto,Si,9.0,0.0,0,18,2.16906,41.37932
663,La Plassohla,"VIA. LAIETANA, 49",el Barri Gòtic,MARISQUERIA,Abierto,No,None,8.9,804,30,2.17435,41.38708
664,La Polpa,"C. ENRIC GRANADOS, 69",l'Antiga Esquerra de l'Eixample,MEDITERRANEO,Cerrado,Si,6.75,0.0,0,20,2.1577,41.39122
665,La Porca,"C. MATA, 16",el Poble-sec,MEDITERRANEO,Abierto,No,None,9.3,105,20,2.17081,41.37302
666,La Pruna,"C. CALABRIA, 64",Sant Antoni,MEDITERRANEO,Cerrado,Si,4.5,8.5,401,20,2.15724,41.37814
667,La Real Hamburguesería,"C. VALENCIA, 285",la Dreta de l'Eixample,AMERICANO,Abierto,No,None,0.0,0,12,2.16655,41.39528
668,La Retama,"C. AVINYO, 42",el Barri Gòtic,MEDITERRANEO,None,No,None,0.0,0,20,2.17836,41.38051
669,La Rita,"C. ARAGO, 279",la Dreta de l'Eixample,MEDITERRANEO,None,No,None,9.0,95,20,2.16596,41.3932
670,La Rueda,"C. ROSSELLO, 266",la Dreta de l'Eixample,LATINO,Cerrado,No,None,0.0,0,20,2.16456,41.39863
671,La République du Fromage,"C. COMTE URGELL, 190",l'Antiga Esquerra de l'Eixample,FRANCES,None,Si,9.0,0.0,0,18,2.15127,41.38783
672,La Soperí,"C. ROSSELLO, 197",l'Antiga Esquerra de l'Eixample,MEDITERRANEO,None,Si,2.25,9.2,985,25,2.15577,41.39225
673,La Taberna Griega,"C. TORRENT DE OLLA, 123",la Vila de Gràcia,GRIEGO,None,No,None,8.6,623,23,2.15637,41.40283
674,La Taberneta,"C. ENRIC GRANADOS, 98",l'Antiga Esquerra de l'Eixample,MEDITERRANEO,None,Si,11.25,0.0,0,15,2.15538,41.39321
675,La Tagliatella - Passeig Sant Joan,"PG. SANT JOAN, 54",la Dreta de l'Eixample,ITALIANO,Abierto,Si,9.0,7.9,153,18,2.1742,41.39623
676,La Tagliatella - Som Multiespai BCN,"AV. RIO DE JANEIRO, 42",Porta,Sin información,Abierto,No,None,0.0,0,18,2.18012,41.43547
677,La Tagliatella - Travessera de Gracia,"TRAV. GRACIA, 87",Sant Gervasi - Galvany,Sin información,None,No,None,9.2,483,18,2.15164,41.3976
678,La Tagliatella Diagonal,"AV. DIAGONAL, 431",l'Antiga Esquerra de l'Eixample,Sin información,Abierto,Si,19.44,8.8,471,18,2.15245,41.39452
679,La Tagliatella Diagonal Mar,"AV. DIAGONAL, 3",Diagonal Mar i el Front Marítim del Poblenou,Sin información,Abierto,Si,16.2,8.9,535,18,2.21642,41.41045
680,La Tagliatella Enric Granados,"C. ENRIC GRANADOS, 63",l'Antiga Esquerra de l'Eixample,ITALIANO,None,Si,9.0,8.1,286,18,2.15794,41.39104
681,La Tagliatella La Maquinista,"PG. POTOSI, 2",el Bon Pastor,Sin información,Abierto,No,None,0.0,0,18,2.19848,41.4408
682,La Tagliatella Las Arenas,"G.V.. CORTS CATALANES, 373",la Nova Esquerra de l'Eixample,Sin información,Abierto,Si,42.75,7.8,301,18,2.14997,41.37603
683,La Tagliatella Mallorca,"C. MALLORCA, 266",la Dreta de l'Eixample,Sin información,Abierto,Si,4.37,0.0,0,18,2.16383,41.39467
684,La Tagliatella Muntaner,"C. MUNTANER, 359",Sant Gervasi - Galvany,Sin información,Abierto,No,None,8.9,203,18,2.14352,41.39853
685,La Tagliatella Pau Claris,"C. PAU CLARIS, 118",la Dreta de l'Eixample,Sin información,Abierto,Si,5.7,6.6,202,18,2.16793,41.39228
686,La Tagliatella Sarria,"C. DOCTOR FERRAN, 25",Pedralbes,Sin información,Abierto,No,None,8.9,503,18,2.12435,41.38962
687,La Tagliatella Tarradellas,"AV. JOSEP TARRADELLAS, 116",la Nova Esquerra de l'Eixample,Sin información,None,Si,11.25,7.4,245,18,2.14387,41.39014
688,La Tapa del Triomf,"PG. LLUIS COMPANYS, 8","Sant Pere, Santa Caterina i la Ribera",ESPAÑOL,Cerrado,Si,2.25,0.0,0,12,2.18323,41.38979
689,La Taqueria Pujades,"C. PUJADES, 172",el Poblenou,MEXICANO,Abierto,Si,4.5,9.2,134,15,2.19983,41.4009
690,La Taqueria Sardenya,"C. SARDENYA, 304",la Sagrada Família,MEXICANO,Abierto,Si,5.2,8.8,127,15,2.17493,41.40235
691,La Tata,"C. CALABRIA, 69",Sant Antoni,MEDITERRANEO,Abierto,Si,5.7,9.4,6091,40,2.15693,41.3781
692,La Taula,"C. SANT MARIUS, 8",Sant Gervasi - la Bonanova,MEDITERRANEO,None,No,None,0.0,97,26,2.13794,41.40436
693,La Taverna - Casino Barcelona,"C. MARINA, 19",la Barceloneta,MEDITERRANEO,Cerrado,Si,32.0,0.0,0,20,2.19657,41.38711
694,La Taverna del Poblenou by Chef Reina,"C. LLULL, 147",el Poblenou,MEDITERRANEO,Abierto,Si,4.5,9.3,404,22,2.19977,41.39934
695,La Taverneta Barcelona,"C. FRANCESC PUJOLS, 3",el Barri Gòtic,CATALAN,None,Si,6.75,0.0,0,25,2.17291,41.38438
696,La Terraza Miró,"C. TARRAGONA, 129",Hostafrancs,ESPAÑOL,Abierto,Si,13.5,9.5,2523,30,2.146,41.37745
697,La Terraza del Claris - Hotel Claris,"C. PAU CLARIS, 150",la Dreta de l'Eixample,MEDITERRANEO,Cerrado,No,None,9.4,2237,55,2.16503,41.39449
698,La Terraza del Pelai,"C. PELAI, 28",el Raval,MEDITERRANEO,None,No,None,9.5,5,25,2.16682,41.38566
699,La Tertulia,"RBLA. POBLENOU, 34",el Poblenou,MEDITERRANEO,Abierto,Si,18.0,8.8,42,18,2.20377,41.39933
700,La Timpa,"C. NOU DE LA RAMBLA, 154",el Poble Sec,ITALIANO,Cerrado,Si,2.4,0.0,0,17,2.1671,41.37227
701,La Torreta de l'Escorial,"C. ESCORIAL, 158",el Camp d'en Grassot i Gràcia Nova,CATALAN,None,No,None,0.0,0,25,2.15888,41.41009
702,La Triunfal,"PG. SANT JOAN, 4",el Fort Pienc,MEDITERRANEO,Abierto,Si,13.5,8.6,932,25,2.18005,41.39182
703,La Trobada,"C. PROVENÇA, 99",la Nova Esquerra de l'Eixample,MEDITERRANEO,None,Si,2.25,0.0,0,17,2.15008,41.38628
704,La Vermuterie,"C. LONDRES, 103",l'Antiga Esquerra de l'Eixample,MEDITERRANEO,Abierto,Si,4.5,8.7,1645,22,2.15078,41.39364
705,La Vespa,"C. TORRENT DE OLLA, 99",la Vila de Gràcia,ITALIANO,None,No,None,9.1,336,13,2.15723,41.40203
706,La Vietnamita,"C. TORRENT DE OLLA, 78",la Vila de Gràcia,VIETNAMITA,None,No,None,0.0,0,29,2.15908,41.40079
707,La Vietnamita - Born,"C. COMERÇ, 17","Sant Pere, Santa Caterina i la Ribera",ASIATICO,None,Si,2.4,8.8,67,18,2.18211,41.38709
708,La Villa Sants,"PG. SANT ANTONI, 15",Sants,Sin información,Abierto,Si,18.0,9.2,605,15,2.13686,41.37705
709,La boca agua,"C. ROSER, 34",el Poble-sec,MEDITERRANEO,None,No,None,9.3,36,30,2.16645,41.37316
710,La casa milagrosa,"C. FLORIDABLANCA, 88",Sant Antoni,FUSION,None,Si,4.37,8.9,45,20,2.15923,41.3789
711,La cratera,"C. VILLARROEL, 247",l'Antiga Esquerra de l'Eixample,MEDITERRANEO,Abierto,Si,11.25,8.4,287,25,2.14792,41.39178
712,La lola de las arenas,"G.V.. CORTS CATALANES, 373",la Nova Esquerra de l'Eixample,MEDITERRANEO,Abierto,Si,42.75,8.6,165,20,2.14997,41.37603
713,La monda molleteria,"PTGE. JOSEP LLOVERA, 1",Sant Gervasi - Galvany,ESPAÑOL,Abierto,No,None,9.4,8,16,2.14849,41.39566
714,La tarantula de Sants,"C. VALLADOLID, 40",Sants,MEXICANO,None,No,None,9.3,77,20,2.13707,41.37804
715,La vianda del Clot,"C. MALLORCA, 601",el Camp de l'Arpa del Clot,MEDITERRANEO,Abierto,Si,5.7,8.1,158,24,2.18607,41.41165
716,LaBRASA,"TRAV. GRACIA, 81",Sant Gervasi - Galvany,BRASILEÑO,None,No,None,0.0,0,15,2.15107,41.3972
717,Lagar,"C. LLENGUADOC, 6",Sant Andreu,MEDITERRANEO,Abierto,No,None,0.0,0,20,2.18907,41.43128
718,Lamun Cuina Thai,"C. VILADOMAT, 73",Sant Antoni,TAILANDES,Abierto,Si,11.4,9.2,889,30,2.15901,41.37829
719,Las Cazuelitas Mexicanas,"C. GRANADA DEL PENEDES, 19",Sant Gervasi - Galvany,MEXICANO,None,No,None,9.3,214,17,2.15246,41.39674
720,Las Corts,"C. PINTOR TAPIRO, 45",la Maternitat i Sant Ramon,MERCADO,None,No,None,9.5,164,32,2.11825,41.37806
721,Las Delicias de Francia,"C. MUNTANER, 443",Sant Gervasi - Galvany,FRANCES,Abierto,No,None,8.5,241,34,2.13989,41.40124
722,Las Planchitas,"C. ENRIC GRANADOS, 26",l'Antiga Esquerra de l'Eixample,MEXICANO,None,Si,4.5,9.5,156,15,2.15932,41.39023
723,Lasarte by Martín Berasategui - Monument Hotel,"C. MALLORCA, 259",la Dreta de l'Eixample,MEDITERRANEO,None,No,None,0.0,0,200,2.16216,41.39369
724,Lascaleta restobar,"AV. VALLCARCA, 156",Vallcarca i els Penitents,ESPAÑOL,Abierto,Si,7.2,8.7,111,15,2.14315,41.41383
725,Last Monkey,"C. COMTE BORRELL, 70",Sant Antoni,ASIATICO,None,No,None,9.2,390,20,2.16035,41.37926
726,"Lasun, Gastronomía Nepalí","C. ARAGO, 397",el Fort Pienc,ASIATICO,Cerrado,No,None,9.4,659,14,2.17445,41.39958
727,Lata-Barra,"C. MALLORCA, 438",la Sagrada Família,MEDITERRANEO,None,Si,2.4,0.0,0,20,2.17711,41.40462
728,Lata-Bern@,"C. TORRENT DE LES FLORS, 53",la Vila de Gràcia,MEDITERRANEO,Abierto,No,None,8.8,569,20,2.16018,41.40619
729,Lato Café,"C. BRUC, 118",la Dreta de l'Eixample,LATINO,Abierto,Si,2.25,9.5,83,15,2.16713,41.3963
730,Laz Laz,"C. LEPANT, 297",la Sagrada Família,ITALIANO,Cerrado,No,None,0.0,0,20,2.17482,41.40574
731,Le Bouchon - Hotel Mercer Barcelona,"C. LLEDO, 7",el Barri Gòtic,MEDITERRANEO,Abierto,No,None,0.0,0,30,2.17893,41.38265
732,Le Divan,"C. GUILLEM TELL, 10",el Putxet i el Farró,FUSION,None,Si,1.2,9.0,39,18,2.14933,41.40308
733,Le Romane,"C. MUNTANER, 103",l'Antiga Esquerra de l'Eixample,Sin información,Abierto,Si,4.8,9.5,1010,20,2.15638,41.38881
734,Le Saint-Tropez,"C. PROVENÇA, 88",la Nova Esquerra de l'Eixample,MEDITERRANEO,None,Si,6.75,0.0,0,25,2.14796,41.38442
735,Leche de Tigre,"C. MARTINEZ DE LA ROSA, 10",la Vila de Gràcia,PERUANO,Abierto,No,None,9.4,690,25,2.15998,41.39912
736,Leka,"C. BADAJOZ, 65",el Poblenou,INTERNACIONAL,None,Si,9.0,0.0,0,25,2.19672,41.39754
737,Les Finestres de Llúria by Eboca Restaurant,"C. ROGER DE LLURIA, 60",la Dreta de l'Eixample,CATALAN,None,Si,2.85,9.0,222,20,2.16842,41.39358
738,Les Mil i Una Nits,"C. ROSSELLO, 354",la Sagrada Família,ARABE,Sin información,No,None,8.9,380,18,2.1707,41.40324
739,Les Truites,"C. ARIMON, 22",Sant Gervasi - la Bonanova,MEDITERRANEO,None,No,None,9.3,915,20,2.13692,41.40439
740,Level,"C. ROSSELLO, 206",la Dreta de l'Eixample,MEDITERRANEO,Abierto,Si,9.0,8.5,58,15,2.15783,41.39352
741,Libertine,"G.V.. CORTS CATALANES, 700",la Dreta de l'Eixample,MEDITERRANEO,Abierto,No,None,0.0,0,25,2.17429,41.39363
742,Lilo cafe,"C. DIPUTACIO, 443",el Fort Pienc,VEGETARIANO,Abierto,Si,4.5,9.4,138,15,2.17944,41.39982
743,Lisboa,"C. COMTE BORRELL, 145",la Nova Esquerra de l'Eixample,PORTUGUES,None,Si,6.0,0.0,0,18,2.15663,41.38179
744,Litoral,"C. PESCADORS, 87",la Barceloneta,MEDITERRANEO,None,No,None,9.5,63,25,2.19003,41.37609
745,Little Andaman,"C. MUNTANER, 182",l'Antiga Esquerra de l'Eixample,INDIO,None,No,None,9.6,205,27,2.1521,41.39232
746,Little India,"C. CONSELL DE CENT, 313",la Dreta de l'Eixample,INDIO,Abierto,Si,5.4,8.7,89,30,2.16313,41.3893
747,Little Italy Jazz,"C. REC, 30","Sant Pere, Santa Caterina i la Ribera",MEDITERRANEO,Abierto,No,None,0.0,0,23,2.1827,41.38532
748,Little Viet,"C. CARTAGENA, 328",la Sagrada Família,VIETNAMITA,None,No,None,9.1,54,18,2.17481,41.41098
749,Llamber,"C. FUSINA, 5","Sant Pere, Santa Caterina i la Ribera",MEDITERRANEO,Abierto,Si,9.0,9.2,93,35,2.18304,41.38639
750,Lokal,"C. BRUC, 118",la Dreta de l'Eixample,ESPAÑOL,Abierto,Si,2.25,9.5,629,20,2.16713,41.3963
751,Lokal,"C. MARINA, 19",la Barceloneta,MEDITERRANEO,Cerrado,Si,32.0,0.0,0,30,2.19657,41.38711
752,Lolo mes que vins,"C. RIEGO, 18",Sants,MEDITERRANEO,None,No,None,9.1,282,20,2.13842,41.37664
753,Lomo Alto,"C. ARAGO, 283",la Dreta de l'Eixample,ASADOR,None,No,None,8.7,634,65,2.16653,41.39363
754,Londres2,"C. MALLORCA, 532",el Camp de l'Arpa del Clot,MEDITERRANEO,None,Si,5.7,0.0,0,15,2.182,41.40828
755,Lonja de Tapas - Pla de Palau,"PLA. PALAU, 7","Sant Pere, Santa Caterina i la Ribera",MEDITERRANEO,None,Si,18.0,6.2,51,16,2.18286,41.3833
756,Los Bellota Sagrada Familia,"C. MARINA, 298",la Sagrada Família,EXTREMEÑO,Abierto,Si,4.5,0.0,0,26,2.17368,41.40521
757,Los Caracoles,"C. ESCUDELLERS, 14",el Barri Gòtic,MEDITERRANEO,Abierto,No,None,9.1,935,35,2.17648,41.37971
758,Lucuma & Camote - Icària,"AV. ICARIA, 132",la Vila Olímpica del Poblenou,PERUANO,Abierto,Si,8.55,9.4,874,30,2.19532,41.38947
759,Lucuma & Camote - Peru Boutique,"C. ARIBAU, 158",l'Antiga Esquerra de l'Eixample,PERUANO,Abierto,Si,3.45,0.0,0,25,2.15435,41.39228
760,Luigi Ristorante,"C. ROGER DE LLURIA, 50",la Dreta de l'Eixample,Sin información,Abierto,Si,11.4,9.2,196,25,2.16945,41.39285
761,Luna de Istanbul,"C. GRAN DE GRACIA, 160",la Vila de Gràcia,INDIO,None,No,None,0.0,0,20,2.15298,41.40225
762,Luris II,"C. PAU CLARIS, 139",la Dreta de l'Eixample,JAPONES,Abierto,Si,7.22,0.0,0,12,2.16574,41.39362
763,M restaurante japones,"C. GRAN DE GRACIA, 180",la Vila de Gràcia,JAPONES,None,No,None,9.3,10,20,2.15252,41.40288
764,M2 Gluten Free,"AV. DIAGONAL, 505",les Corts,MEDITERRANEO,Abierto,Si,4.5,8.9,1447,22,2.14165,41.3916
765,MAAI - REAL FOOD,"C. REGAS, 30",Sant Gervasi - Galvany,Sin información,Cerrado,No,None,9.7,95,15,2.15091,41.39951
766,MOOD Rooftop Bar - Hotel The One,"C. PROVENÇA, 277",la Dreta de l'Eixample,ESPAÑOL,None,No,None,0.0,0,35,2.16317,41.39616
767,MR KAO - Hotel Claris,"C. VALENCIA, 271",la Dreta de l'Eixample,CHINO,None,Si,3.45,0.0,0,35,2.16544,41.39443
768,Machete - El Born,"PLA. PALAU, 12","Sant Pere, Santa Caterina i la Ribera",LATINO,None,Si,2.4,0.0,0,20,2.18328,41.38338
769,Machete - Gòtic,"C. AMPLE, 20",el Barri Gòtic,LATINO,Abierto,No,None,0.0,0,20,2.17977,41.38011
770,Madrelievito - Barcelona,"C. LLACUNA, 1",el Poblenou,Sin información,Abierto,No,None,0.0,0,15,2.2033,41.3977
771,Maillard,"C. EQUADOR, 47",les Corts,MEDITERRANEO,None,Si,6.75,0.0,0,10,2.13962,41.38617
772,Maison Carne,"C. MALLORCA, 204",l'Antiga Esquerra de l'Eixample,Sin información,Abierto,No,None,9.7,265,25,2.15833,41.39031
773,Majide,"C. TALLERS, 48",el Raval,AUTOR,None,No,None,9.1,828,40,2.16749,41.38493
774,Majlis Gastronòmic,"C. VALENCIA, 363",la Dreta de l'Eixample,ARABE,None,Si,4.5,9.6,5,17,2.17135,41.39888
775,Makekosa - Pizzería Gourmet,"C. FLORIDABLANCA, 102",Sant Antoni,ITALIANO,Abierto,No,None,9.5,437,27,2.16016,41.37961
776,Makkoli,"C. DIPUTACIO, 88",la Nova Esquerra de l'Eixample,COREANO,Abierto,Si,2.4,0.0,0,25,2.15436,41.38071
777,Mako,"C. CONSELL DE CENT, 255",l'Antiga Esquerra de l'Eixample,JAPONES,Cerrado,Si,8.55,9.3,1732,25,2.15981,41.38679
778,Malumore - Cocina honesta,"C. SALVA, 22",el Poble-sec,ITALIANO,None,No,None,9.5,21,30,2.16623,41.37399
779,Mamarosa Beach,"PG. MARE NOSTRUM, 19",la Barceloneta,Sin información,None,No,None,8.7,1478,28,2.18986,41.36915
780,Mamy Ildy,"C. FLORIDABLANCA, 148",Sant Antoni,Sin información,None,Si,5.7,9.4,371,14,2.16289,41.38168
781,Manairó,"C. DIPUTACIO, 424",el Fort Pienc,MEDITERRANEO,None,No,None,9.3,1156,60,2.1795,41.3996
782,Manga Rosa,"C. CONSELL DE CENT, 220",l'Antiga Esquerra de l'Eixample,BRASILEÑO,Abierto,Si,10.8,0.0,0,15,2.15892,41.38585
783,Mano Rota,"C. CREU DELS MOLERS, 4",el Poble-sec,MEDITERRANEO,None,No,None,9.4,917,50,2.16188,41.37444
784,Manso Pizzeria,"C. CALABRIA, 44",Sant Antoni,Sin información,Cerrado,Si,4.5,0.0,0,20,2.159,41.37682
785,Manzoku ramen&sushi,"C. ESPRONCEDA, 126",el Poblenou,JAPONES,Abierto,Si,3.45,9.8,10,14,2.20296,41.40671
786,Marcelino16,"C. DIPUTACIO, 41",la Nova Esquerra de l'Eixample,GALLEGO,Abierto,Si,8.55,9.2,30,18,2.1522,41.37938
787,Marea Alta,"AV. DRASSANES, 6",el Raval,MEDITERRANEO,Cerrado,No,None,0.0,0,30,2.1751,41.37651
788,Margarita Blue,"C. JOSEP ANSELM CLAVE, 6",el Barri Gòtic,MEXICANO,Abierto,No,None,9.6,245,17,2.17841,41.37797
789,Margherita,"C. ROSSELLO, 253",la Dreta de l'Eixample,ITALIANO,Abierto,Si,4.5,9.2,632,22,2.15953,41.39512
790,Marina - Hotel Arts Barcelona,"C. MARINA, 19",la Barceloneta,MEDITERRANEO,Cerrado,Si,32.0,8.9,27,30,2.19657,41.38711
791,Marina Bay,"C. MARINA, 19",la Barceloneta,ARROCERIA,Cerrado,Si,32.0,0.0,0,27,2.19657,41.38711
792,Marinella,"C. CLOT, 179",el Clot,ITALIANO,None,Si,11.1,0.0,0,14,2.19033,41.41389
793,Maris&co,"C. ARAGO, 497",la Sagrada Família,ESPAÑOL,Cerrado,Si,12.0,0.0,0,20,2.18127,41.40474
794,Mariscco - Córcega,"C. CORSEGA, 272",la Dreta de l'Eixample,MARISQUERIA,Abierto,Si,6.75,9.2,282,30,2.15665,41.39437
795,Market,"C. COMTE BORRELL, 68",Sant Antoni,MEDITERRANEO,Abierto,No,None,8.6,80,20,2.16051,41.37914
796,Martina's Restaurant,"MOLL ESPANYA, 5",el Barri Gòtic,ARROCERIA,Abierto,No,None,0.0,0,27,2.18239,41.37545
797,Masa Madre,"C. DIPUTACIO, 301",la Dreta de l'Eixample,ARABE,None,Si,4.5,9.4,8,15,2.16945,41.39237
798,Masaya,"C. PAU CLARIS, 128",la Dreta de l'Eixample,LIBANES,Abierto,Si,8.55,9.3,442,20,2.16697,41.39301
799,Match from Scratch,"C. ARIBAU, 146",l'Antiga Esquerra de l'Eixample,MEDITERRANEO,Cerrado,No,None,9.7,14,23,2.15478,41.392
800,Mató de Pedralbes,"C. BISBE CATALA, 10",Pedralbes,MEDITERRANEO,None,No,None,0.0,0,35,2.11398,41.39545
801,Maur - Muntaner,"C. MUNTANER, 121",l'Antiga Esquerra de l'Eixample,Sin información,Sin información,No,None,0.0,0,25,2.15515,41.38971
802,Maur - Urgell,"C. COMTE URGELL, 9",Sant Antoni,Sin información,None,Si,7.95,0.0,0,25,2.16141,41.37982
803,Maurizio 2.0,"C. MUNTANER, 208",l'Antiga Esquerra de l'Eixample,Sin información,Abierto,No,None,9.2,288,24,2.15092,41.39321
804,Mavi's,"C. ARIBAU, 18",l'Antiga Esquerra de l'Eixample,AMERICANO,Abierto,No,None,0.0,0,15,2.16219,41.38641
805,Mayura,"C. GIRONA, 57",la Dreta de l'Eixample,INDIO,Abierto,Si,17.1,9.4,2294,25,2.17221,41.3939
806,Mazah,"G.V.. CORTS CATALANES, 618",la Dreta de l'Eixample,MEDITERRANEO,Abierto,No,None,9.0,526,30,2.16658,41.38783
807,Mealisa,"AV. DIAGONAL, 501",les Corts,MEDITERRANEO,Abierto,Si,6.75,0.0,0,15,2.14207,41.39173
808,Meating,"C. AMIGO, 68",Sant Gervasi - Galvany,MEDITERRANEO,None,Si,4.8,9.6,229,25,2.14247,41.39701
809,Medio o Pinto,"C. CALVET, 27",Sant Gervasi - Galvany,VENEZOLANO,Abierto,Si,4.95,9.3,332,25,2.14333,41.39473
810,Mediterranean Original,"AV. DIAGONAL, 208",el Parc i la Llacuna del Poblenou,Sin información,Abierto,Si,43.56,0.0,0,10,2.19252,41.40497
811,Mediterrani,"C. DIPUTACIO, 73",la Nova Esquerra de l'Eixample,MEDITERRANEO,Abierto,Si,7.22,0.0,0,23,2.15445,41.38108
812,Mediterrània - Hotel Zenit Barcelona,"C. SANTALO, 8",Sant Gervasi - Galvany,MEDITERRANEO,Abierto,No,None,0.0,0,25,2.14688,41.39494
813,Meet,"C. CONSELL DE CENT, 401",la Dreta de l'Eixample,JAPONES,Abierto,Si,6.75,0.0,0,20,2.17108,41.39527
814,Mei Hua,"C. BALMES, 301",Sant Gervasi - Galvany,CHINO,Abierto,No,None,0.0,0,18,2.14571,41.40214
815,Melic del Gòtic,"C. MONTSIO, 7",el Barri Gòtic,MEDITERRANEO,None,No,None,9.0,23,20,2.174,41.38586
816,Melo-Jia,"C. CORSEGA, 250",l'Antiga Esquerra de l'Eixample,CHINO,Abierto,No,None,0.0,0,20,2.15551,41.39351
817,Meluka,"C. CREU COBERTA, 33",Hostafrancs,JAPONES,Abierto,Si,4.37,0.0,0,20,2.14707,41.37506
818,Memorias de China,"C. LINCOLN, 17",Sant Gervasi - Galvany,CHINO,Abierto,No,None,8.9,807,30,2.14993,41.40047
819,Menssana,"C. SARDENYA, 48",la Vila Olímpica del Poblenou,MEDITERRANEO,Abierto,Si,3.45,0.0,0,15,2.18996,41.39099
820,Meraviglioso,"C. VALENCIA, 28",la Nova Esquerra de l'Eixample,ITALIANO,Abierto,No,None,9.6,328,22,2.14665,41.38002
821,Mercer,"C. LLEDO, 7",el Barri Gòtic,MEDITERRANEO,Abierto,No,None,0.0,0,65,2.17893,41.38265
822,Metric Market,"AV. DIAGONAL, 505",les Corts,MEDITERRANEO,Abierto,Si,4.5,8.9,1637,25,2.14165,41.3916
823,MexGal,"AV. FRANCESC FERRER I GUARDIA, 13",el Poble-sec,FUSION,None,No,None,9.4,89,35,2.14674,41.36914
824,Mexcla,"C. RAMON Y CAJAL, 35",la Vila de Gràcia,MEXICANO,Cerrado,No,None,9.1,991,32,2.15892,41.40284
825,Mi Burrito y Yo,"C. PAS DE ENSENYANÇA, 2",el Barri Gòtic,Sin información,None,No,None,8.8,160,25,2.17681,41.38195
826,Mi Restaurante,"C. CARME, 74",el Raval,JAPONES,None,No,None,0.0,0,15,2.16785,41.38092
827,Mian,"C. GIRONA, 49",la Dreta de l'Eixample,CHINO,Abierto,Si,10.8,8.8,284,15,2.17265,41.39356
828,Miguelitos,"AV. DIAGONAL, 405",la Dreta de l'Eixample,MEDITERRANEO,None,Si,12.96,0.0,0,25,2.15611,41.39545
829,Mil hojas,"C. MUNTANER, 423",Sant Gervasi - Galvany,MEDITERRANEO,Cerrado,Si,4.5,0.0,0,20,2.1408,41.40052
830,Milo Grill,"C. BALMES, 127",l'Antiga Esquerra de l'Eixample,ARGENTINO,Abierto,No,None,8.8,7344,25,2.15783,41.39283
831,Minamo,"C. BRUC, 65",la Dreta de l'Eixample,JAPONES,None,No,None,0.0,0,98,2.1701,41.39378
832,Mirabé,"C. MANUEL ARNUS, 2",Sant Gervasi - la Bonanova,FUSION,None,No,None,8.9,2738,40,2.13215,41.41618
833,Miramar Club,"AV. MIRAMAR, 40",el Poble-sec,MEDITERRANEO,None,No,None,0.0,0,40,2.16694,41.36937
834,Miss Simona,"C. MALLORCA, 438",la Sagrada Família,ITALIANO,None,Si,2.4,9.1,15,15,2.17711,41.40462
835,Miss Sushi Aribau,"C. ARIBAU, 39",l'Antiga Esquerra de l'Eixample,JAPONES,Abierto,Si,5.7,8.9,1202,20,2.16009,41.38767
836,Miu Taverna Japonesa,"C. ENRIC GRANADOS, 23",l'Antiga Esquerra de l'Eixample,JAPONES,None,Si,15.0,0.0,0,17,2.16135,41.38846
837,Miu japonés,"C. VALENCIA, 249",la Dreta de l'Eixample,JAPONES,None,No,None,9.1,400,24,2.16321,41.39277
838,Miyazaki Sushi,"C. VALENCIA, 11",la Nova Esquerra de l'Eixample,JAPONES,Abierto,Si,9.0,8.9,324,15,2.14636,41.38006
839,MoMa,"C. RIEGO, 25",Sants,MERCADO,None,No,None,0.0,0,25,2.13832,41.37656
840,Mogollon's,"AV. ICARIA, 131",la Vila Olímpica del Poblenou,Sin información,Abierto,Si,7.22,0.0,0,15,2.19492,41.3897
841,Molina,"PG. SANT GERVASI, 65",Sant Gervasi - la Bonanova,ESPAÑOL,None,Si,5.7,0.0,0,26,2.13812,41.41168
842,"Moments - Mandarin Oriental, Barcelona","PG. GRACIA, 38",la Dreta de l'Eixample,CREATIVO,Abierto,No,None,9.2,265,150,2.16666,41.3912
843,Momo,"C. AVINYO, 39",el Barri Gòtic,MEDITERRANEO,Abierto,No,None,0.0,0,20,2.17946,41.38021
844,MonDoré,"C. FLORIDABLANCA, 3",Sant Antoni,MEDITERRANEO,None,Si,6.75,8.9,520,23,2.15451,41.37563
845,Montesquiu,"C. MANDRI, 56",Sant Gervasi - la Bonanova,ESPAÑOL,Abierto,Si,9.0,9.0,919,30,2.13255,41.40464
846,Mordisco,"PTGE. CONCEPCIO, 10",la Dreta de l'Eixample,ESPAÑOL,None,No,None,0.0,0,25,2.16001,41.39458
847,Mosaic Restaurant,"AV. DIAGONAL, 589",les Corts,ESPAÑOL,Abierto,No,None,0.0,0,32,2.13139,41.38892
848,Mozzafiato,"PG. FABRA I PUIG, 266",el Turó de la Peira,ITALIANO,Abierto,No,None,9.5,98,25,2.17424,41.43047
849,Mucho Pizzeria,"C. MARIA CUBI, 201",Sant Gervasi - Galvany,INSIDER,None,No,None,9.4,242,15,2.14401,41.39487
850,Muntaner 296,"C. MUNTANER, 296",Sant Gervasi - Galvany,ESPAÑOL,Abierto,Si,6.75,7.7,46,20,2.14627,41.39669
851,Murivecchi,"C. PRINCESA, 59","Sant Pere, Santa Caterina i la Ribera",INSIDER,Abierto,No,None,9.1,804,23,2.18277,41.38734
852,Mussol - Aragó,"C. ARAGO, 261",la Dreta de l'Eixample,CATALAN,None,Si,11.4,8.4,309,20,2.1642,41.39186
853,Mussol - C.C. Arenas,"G.V.. CORTS CATALANES, 373",la Nova Esquerra de l'Eixample,CATALAN,Abierto,Si,42.75,8.5,163,20,2.14997,41.37603
854,Mussol - C.C. Glòries,"AV. DIAGONAL, 208",el Parc i la Llacuna del Poblenou,CATALAN,Abierto,Si,43.56,8.4,265,20,2.19252,41.40497
855,Mussol - Casp,"C. CASP, 19",la Dreta de l'Eixample,CATALAN,None,Si,6.75,8.7,321,20,2.17053,41.38938
856,Món Viet,"C. SEPULVEDA, 94",Sant Antoni,VIETNAMITA,Abierto,No,None,9.3,968,17,2.15732,41.37918
857,NH Collection Pódium - Bistro,"C. BAILEN, 4",la Dreta de l'Eixample,MEDITERRANEO,None,Si,11.25,0.0,0,25,2.17768,41.39171
858,NOW - Not Only Wine,"C. HERCEGOVINA, 28",Sant Gervasi - Galvany,MEDITERRANEO,None,Si,62.4,9.1,839,18,2.14009,41.40318
859,Nagano,"AV. PARAL·LEL, 76",el Raval,JAPONES,None,No,None,0.0,0,16,2.16831,41.37518
860,Nakashita,"C. REC COMTAL, 15","Sant Pere, Santa Caterina i la Ribera",JAPONES,Abierto,No,None,8.9,1062,33,2.17987,41.38996
861,Namaste II,"C. VILLARROEL, 70",l'Antiga Esquerra de l'Eixample,INDIO,None,No,None,0.0,0,30,2.15878,41.38385
862,Napa,"C. ARIBAU, 151",l'Antiga Esquerra de l'Eixample,AMERICANO,None,Si,5.4,9.5,638,50,2.15357,41.39264
863,Narciso,"C. PRINCESA, 9","Sant Pere, Santa Caterina i la Ribera",ITALIANO,None,No,None,0.0,3,20,2.17939,41.38458
864,Navarra,"PG. GRACIA, 4",la Dreta de l'Eixample,MEDITERRANEO,None,Si,31.5,0.0,0,28,2.17013,41.38835
865,Nectari by Jordi Esteve,"C. VALENCIA, 28",la Nova Esquerra de l'Eixample,MEDITERRANEO,Abierto,No,None,9.4,685,70,2.14665,41.38002
866,Negresco,"C. ROGER DE LLURIA, 16",la Dreta de l'Eixample,MEDITERRANEO,None,Si,10.07,9.5,759,30,2.17262,41.3904
867,Negro,"AV. DIAGONAL, 640",les Corts,MEDITERRANEO,Abierto,Si,18.0,0.0,0,35,2.1358,41.39105
868,Negronix Bar,"C. TRINXANT, 125",Navas,INTERNACIONAL,Abierto,Si,6.75,9.0,48,20,2.18137,41.41759
869,Nelumbo,"C. ARIBAU, 32",l'Antiga Esquerra de l'Eixample,ASIATICO,Abierto,Si,5.7,7.4,217,27,2.16123,41.38713
870,New Himali,"C. CORSEGA, 416",la Dreta de l'Eixample,INDIO,None,Si,5.7,9.3,82,15,2.16496,41.40063
871,New York,"C. GARCILASO, 165",el Congrés i els Indians,AMERICANO,Abierto,Si,10.5,0.0,0,18,2.18181,41.42324
872,New franvic,"PG. SANTA COLOMA, 33",Sant Andreu,Sin información,Abierto,Si,6.75,0.0,0,15,2.19031,41.44538
873,Nice Spice,"C. PUJADES, 207",el Poblenou,INDIO,Abierto,Si,4.5,0.0,0,12,2.2024,41.40313
